FIPS, County, Province_State, Country_Region, Last_Updated, Latitude, Longitude, Confirmed, Deaths, Recovered, Active
01001,Autauga,Alabama,USA,2020-05-08 00:00:00,32.5349201865946,-86.6427492350291,61,3,0,58
01003,Baldwin,Alabama,USA,2020-05-08 00:00:00,30.6609696648281,-87.7498400784147,205,5,0,200
01005,Barbour,Alabama,USA,2020-05-08 00:00:00,31.8696032447812,-85.3931969755454,51,1,0,50
01007,Bibb,Alabama,USA,2020-05-08 00:00:00,32.9986442964615,-87.1264391014269,44,0,0,44
01009,Blount,Alabama,USA,2020-05-08 00:00:00,33.9808673855697,-86.5673709607659,44,0,0,44
01011,Bullock,Alabama,USA,2020-05-08 00:00:00,32.1005542204583,-85.7156972254422,18,1,0,17
01013,Butler,Alabama,USA,2020-05-08 00:00:00,31.7524339428945,-86.6802892153577,155,2,0,153
01015,Calhoun,Alabama,USA,2020-05-08 00:00:00,33.7714324565038,-85.8260308543469,120,3,0,117
01017,Chambers,Alabama,USA,2020-05-08 00:00:00,32.9143722297655,-85.392042951289,308,21,0,287
01019,Cherokee,Alabama,USA,2020-05-08 00:00:00,34.1759559677231,-85.6037937155572,18,0,0,18
01021,Chilton,Alabama,USA,2020-05-08 00:00:00,32.8478532120198,-86.7188136720327,63,1,0,62
01023,Choctaw,Alabama,USA,2020-05-08 00:00:00,32.0196107830969,-88.2632012742889,56,0,0,56
01025,Clarke,Alabama,USA,2020-05-08 00:00:00,31.6766595801679,-87.8308098506618,50,1,0,49
01027,Clay,Alabama,USA,2020-05-08 00:00:00,33.2690858672504,-85.8605470840657,25,1,0,24
01029,Cleburne,Alabama,USA,2020-05-08 00:00:00,33.6745577166755,-85.5187680027787,13,1,0,12
01031,Coffee,Alabama,USA,2020-05-08 00:00:00,31.4026271796274,-85.9882069261765,141,1,0,140
01033,Colbert,Alabama,USA,2020-05-08 00:00:00,34.7004337983631,-87.8049852867279,51,2,0,49
01035,Conecuh,Alabama,USA,2020-05-08 00:00:00,31.4292715445425,-86.9936742092201,12,0,0,12
01037,Coosa,Alabama,USA,2020-05-08 00:00:00,32.93622683042,-86.2476592648461,31,1,0,30
01039,Covington,Alabama,USA,2020-05-08 00:00:00,31.2484923987541,-86.451242543946,48,1,0,47
01041,Crenshaw,Alabama,USA,2020-05-08 00:00:00,31.7315001844092,-86.3135388958891,31,0,0,31
01043,Cullman,Alabama,USA,2020-05-08 00:00:00,34.131941070549,-86.8676194614466,61,0,0,61
01045,Dale,Alabama,USA,2020-05-08 00:00:00,31.4318270698726,-85.6110368182537,36,0,0,36
01047,Dallas,Alabama,USA,2020-05-08 00:00:00,32.3259737089839,-87.1064763257597,83,3,0,80
01049,DeKalb,Alabama,USA,2020-05-08 00:00:00,34.459772955674,-85.8041426435855,124,2,0,122
01051,Elmore,Alabama,USA,2020-05-08 00:00:00,32.5966480504114,-86.1491465307179,127,4,0,123
01053,Escambia,Alabama,USA,2020-05-08 00:00:00,31.1261225460579,-87.1616198681774,33,3,0,30
01055,Etowah,Alabama,USA,2020-05-08 00:00:00,34.0452543999777,-86.0347623240239,161,10,0,151
01057,Fayette,Alabama,USA,2020-05-08 00:00:00,33.7212061504741,-87.7388619701249,7,0,0,7
01059,Franklin,Alabama,USA,2020-05-08 00:00:00,34.4416706415045,-87.8438119781777,184,1,0,183
01061,Geneva,Alabama,USA,2020-05-08 00:00:00,31.095016693043,-85.8389848955425,11,0,0,11
01063,Greene,Alabama,USA,2020-05-08 00:00:00,32.8531388427425,-87.9522309156085,67,2,0,65
01065,Hale,Alabama,USA,2020-05-08 00:00:00,32.7626642245884,-87.6291176815762,62,2,0,60
01067,Henry,Alabama,USA,2020-05-08 00:00:00,31.5146944202189,-85.2414063367077,27,1,0,26
01069,Houston,Alabama,USA,2020-05-08 00:00:00,31.1531879718211,-85.3025273834883,100,4,0,96
01071,Jackson,Alabama,USA,2020-05-08 00:00:00,34.7794159963813,-85.9993005442897,56,2,0,54
01073,Jefferson,Alabama,USA,2020-05-08 00:00:00,33.5543385118485,-86.8963982424211,1065,57,0,1008
01075,Lamar,Alabama,USA,2020-05-08 00:00:00,33.7792058020581,-88.0968988584814,13,0,0,13
01077,Lauderdale,Alabama,USA,2020-05-08 00:00:00,34.901372383982,-87.6539980067006,79,4,0,75
01079,Lawrence,Alabama,USA,2020-05-08 00:00:00,34.5216520166477,-87.3110445129678,19,0,0,19
01081,Lee,Alabama,USA,2020-05-08 00:00:00,32.6011364840717,-85.3555627039694,417,30,0,387
01083,Limestone,Alabama,USA,2020-05-08 00:00:00,34.8100783218555,-86.9813747654261,54,0,0,54
01085,Lowndes,Alabama,USA,2020-05-08 00:00:00,32.1547500095125,-86.6501076966706,85,5,0,80
01087,Macon,Alabama,USA,2020-05-08 00:00:00,32.3859736952465,-85.6926686621679,43,2,0,41
01089,Madison,Alabama,USA,2020-05-08 00:00:00,34.7630897030936,-86.5502065185148,241,4,0,237
01091,Marengo,Alabama,USA,2020-05-08 00:00:00,32.247613412233,-87.7895192944196,73,3,0,70
01093,Marion,Alabama,USA,2020-05-08 00:00:00,34.136549695655,-87.8871383639293,93,7,0,86
01095,Marshall,Alabama,USA,2020-05-08 00:00:00,34.366962102055,-86.3066369689725,487,8,0,479
01097,Mobile,Alabama,USA,2020-05-08 00:00:00,30.6851516211167,-88.1975233535396,1355,78,0,1277
01099,Monroe,Alabama,USA,2020-05-08 00:00:00,31.5708340245628,-87.3654375115275,15,1,0,14
01101,Montgomery,Alabama,USA,2020-05-08 00:00:00,32.2202579875962,-86.207614292299,515,13,0,502
01103,Morgan,Alabama,USA,2020-05-08 00:00:00,34.4534720280215,-86.8529215683745,84,0,0,84
01105,Perry,Alabama,USA,2020-05-08 00:00:00,32.6384656557572,-87.2944007853801,18,0,0,18
01107,Pickens,Alabama,USA,2020-05-08 00:00:00,33.2808768858867,-88.0886925941551,59,2,0,57
01109,Pike,Alabama,USA,2020-05-08 00:00:00,31.8027084904149,-85.9409081483071,85,0,0,85
01111,Randolph,Alabama,USA,2020-05-08 00:00:00,33.2937873448303,-85.4590701568095,96,6,0,90
01113,Russell,Alabama,USA,2020-05-08 00:00:00,32.2883800156307,-85.1849624463713,69,0,0,69
01117,Shelby,Alabama,USA,2020-05-08 00:00:00,33.2642770247873,-86.6606484037164,348,16,0,332
01115,St. Clair,Alabama,USA,2020-05-08 00:00:00,33.715730322181,-86.3145956811547,78,1,0,77
01119,Sumter,Alabama,USA,2020-05-08 00:00:00,32.5910175307833,-88.1987896089409,92,4,0,88
01121,Talladega,Alabama,USA,2020-05-08 00:00:00,33.3800616096589,-86.16590368719,70,2,0,68
01123,Tallapoosa,Alabama,USA,2020-05-08 00:00:00,32.862404942606,-85.7975022448203,314,40,0,274
01125,Tuscaloosa,Alabama,USA,2020-05-08 00:00:00,33.289549846355,-87.5250299520189,259,4,0,255
,unknown,Alabama,USA,2020-05-08 00:00:00,,,8,3,0,5
01127,Walker,Alabama,USA,2020-05-08 00:00:00,33.8033347428879,-87.2973573970794,103,0,0,103
01129,Washington,Alabama,USA,2020-05-08 00:00:00,31.4076037932146,-88.2078768075625,43,2,0,41
01131,Wilcox,Alabama,USA,2020-05-08 00:00:00,31.9892401922487,-87.3082017868586,73,4,0,69
01133,Winston,Alabama,USA,2020-05-08 00:00:00,34.1492251124744,-87.3736834127628,17,0,0,17
02020,Anchorage,Alaska,USA,2020-05-08 00:00:00,61.1482627032552,-149.188568552569,191,4,140,47
02020,Anchorage,Alaska,USA,2020-05-08 00:00:00,61.1482627032552,-149.188568552569,191,4,1,186
02050,Bethel,Alaska,USA,2020-05-08 00:00:00,60.8490903435796,-160.195267974805,1,0,1,0
02090,Fairbanks North Star,Alaska,USA,2020-05-08 00:00:00,64.8077661563841,-146.565422856345,83,2,68,13
02110,Juneau,Alaska,USA,2020-05-08 00:00:00,58.4439351760976,-134.230339191102,27,0,25,2
02122,Kenai Peninsula,Alaska,USA,2020-05-08 00:00:00,60.1194076420788,-151.698058085427,23,2,18,3
02130,Ketchikan Gateway,Alaska,USA,2020-05-08 00:00:00,55.4885148594695,-131.030510342727,16,0,15,1
02150,Kodiak Island,Alaska,USA,2020-05-08 00:00:00,57.6602871351343,-153.749160002331,1,0,1,0
02170,Matanuska-Susitna,Alaska,USA,2020-05-08 00:00:00,62.3046703274023,-149.580200458203,21,1,17,3
02180,Nome,Alaska,USA,2020-05-08 00:00:00,64.8354505225984,-164.244322616361,1,0,1,0
02195,Petersburg,Alaska,USA,2020-05-08 00:00:00,57.1140130760641,-133.002459291596,4,1,2,1
02198,Prince of Wales-Hyder,Alaska,USA,2020-05-08 00:00:00,55.7271705274151,-133.193025890994,2,0,2,0
02220,Sitka,Alaska,USA,2020-05-08 00:00:00,57.1797757863048,-135.304965119425,1,0,0,1
02240,Southeast Fairbanks,Alaska,USA,2020-05-08 00:00:00,63.8762960012011,-143.211992263348,2,0,1,1
,unknown,Alaska,USA,2020-05-08 00:00:00,,,1,4,66,-69
02290,Yukon-Koyukuk,Alaska,USA,2020-05-08 00:00:00,65.5086521547742,-151.389616024915,1,0,0,1
04001,Apache,Arizona,USA,2020-05-08 00:00:00,35.3955080611091,-109.488828707212,630,7,0,623
04003,Cochise,Arizona,USA,2020-05-08 00:00:00,31.8796370863655,-109.751263136657,40,0,0,40
04005,Coconino,Arizona,USA,2020-05-08 00:00:00,35.838695673425,-111.770512718179,618,49,0,569
04007,Gila,Arizona,USA,2020-05-08 00:00:00,33.7997498677873,-110.811737096848,17,0,0,17
04009,Graham,Arizona,USA,2020-05-08 00:00:00,32.9326627045201,-109.887451627563,19,0,0,19
04011,Greenlee,Arizona,USA,2020-05-08 00:00:00,33.2154016682187,-109.240355412914,2,0,0,2
04012,La Paz,Arizona,USA,2020-05-08 00:00:00,33.7293704443638,-113.981607438877,20,1,0,19
04013,Maricopa,Arizona,USA,2020-05-08 00:00:00,33.3489778227475,-112.491486812238,5196,204,1,4991
04015,Mohave,Arizona,USA,2020-05-08 00:00:00,35.7040584995206,-113.757910617772,158,19,0,139
04017,Navajo,Arizona,USA,2020-05-08 00:00:00,35.3995733713584,-110.321396003813,912,32,0,880
04019,Pima,Arizona,USA,2020-05-08 00:00:00,32.0973990259607,-111.78986349896,1465,118,1,1346
04021,Pinal,Arizona,USA,2020-05-08 00:00:00,32.9043665121898,-111.344739895507,530,15,1,514
04023,Santa Cruz,Arizona,USA,2020-05-08 00:00:00,31.5259612569586,-110.846516905131,38,0,0,38
,unknown,Arizona,USA,2020-05-08 00:00:00,,,1,34,0,-33
04025,Yavapai,Arizona,USA,2020-05-08 00:00:00,34.5998564246465,-112.553944833266,152,3,3,146
04027,Yuma,Arizona,USA,2020-05-08 00:00:00,32.7696188927093,-113.905618756593,148,1,0,147
05001,Arkansas,Arkansas,USA,2020-05-08 00:00:00,34.2908080522521,-91.3749047506099,2,0,2,0
05003,Ashley,Arkansas,USA,2020-05-08 00:00:00,33.1912219796931,-91.7684475565043,17,0,11,6
05005,Baxter,Arkansas,USA,2020-05-08 00:00:00,36.2871782317846,-92.3369721116829,5,0,5,0
05007,Benton,Arkansas,USA,2020-05-08 00:00:00,36.3387382969063,-94.2561015343585,113,0,83,30
05009,Boone,Arkansas,USA,2020-05-08 00:00:00,36.3085986468843,-93.0915633722609,4,0,4,0
05011,Bradley,Arkansas,USA,2020-05-08 00:00:00,33.4664224376134,-92.1624016443193,11,1,5,5
05015,Carroll,Arkansas,USA,2020-05-08 00:00:00,36.3410829938228,-93.5381811082915,6,0,4,2
05017,Chicot,Arkansas,USA,2020-05-08 00:00:00,33.2672553196707,-91.2939728213071,10,0,5,5
05019,Clark,Arkansas,USA,2020-05-08 00:00:00,34.0509558643006,-93.1763674899215,32,0,28,4
05021,Clay,Arkansas,USA,2020-05-08 00:00:00,36.3683942057026,-90.4173835628825,3,0,2,1
05023,Cleburne,Arkansas,USA,2020-05-08 00:00:00,35.5381064958122,-92.0267180322093,72,4,66,2
05025,Cleveland,Arkansas,USA,2020-05-08 00:00:00,33.8983618623949,-92.1851454384507,12,0,11,1
05027,Columbia,Arkansas,USA,2020-05-08 00:00:00,33.2142871374119,-93.2273088850455,15,2,4,9
05029,Conway,Arkansas,USA,2020-05-08 00:00:00,35.2622207058798,-92.7013072101192,13,1,8,4
05031,Craighead,Arkansas,USA,2020-05-08 00:00:00,35.8307887047233,-90.6328412550369,92,0,64,28
05033,Crawford,Arkansas,USA,2020-05-08 00:00:00,35.5884840733888,-94.2429568095971,5,0,4,1
05035,Crittenden,Arkansas,USA,2020-05-08 00:00:00,35.2079371348043,-90.3088719897489,203,7,153,43
05037,Cross,Arkansas,USA,2020-05-08 00:00:00,35.2957261161533,-90.771226853031,27,0,13,14
05039,Dallas,Arkansas,USA,2020-05-08 00:00:00,33.9698311293452,-92.6544402046356,1,0,1,0
05041,Desha,Arkansas,USA,2020-05-08 00:00:00,33.8333331806807,-91.2539442656249,17,0,14,3
05043,Drew,Arkansas,USA,2020-05-08 00:00:00,33.5894557061697,-91.7200233190121,19,1,10,8
05045,Faulkner,Arkansas,USA,2020-05-08 00:00:00,35.1469781265078,-92.3320411569534,81,2,66,13
05047,Franklin,Arkansas,USA,2020-05-08 00:00:00,35.512363727181,-93.8906143781116,2,0,2,0
05049,Fulton,Arkansas,USA,2020-05-08 00:00:00,36.3816695473838,-91.8182352993606,3,0,0,3
05051,Garland,Arkansas,USA,2020-05-08 00:00:00,34.5767017575239,-93.1503996520432,118,1,112,5
05053,Grant,Arkansas,USA,2020-05-08 00:00:00,34.290017740772,-92.4235830485566,14,0,12,2
05055,Greene,Arkansas,USA,2020-05-08 00:00:00,36.1176977230413,-90.5590717273351,22,0,12,10
05057,Hempstead,Arkansas,USA,2020-05-08 00:00:00,33.7353045887936,-93.6684431539422,7,1,4,2
05059,Hot Spring,Arkansas,USA,2020-05-08 00:00:00,34.3176480081951,-92.9460691759107,22,0,14,8
05061,Howard,Arkansas,USA,2020-05-08 00:00:00,34.088742932264,-93.9934933572943,14,0,13,1
05063,Independence,Arkansas,USA,2020-05-08 00:00:00,35.7415534129098,-91.5697116528965,12,0,9,3
05065,Izard,Arkansas,USA,2020-05-08 00:00:00,36.0948699142635,-91.9134102959443,11,0,4,7
05067,Jackson,Arkansas,USA,2020-05-08 00:00:00,35.5992402368294,-91.214537668702,1,0,1,0
05069,Jefferson,Arkansas,USA,2020-05-08 00:00:00,34.2687844437089,-91.9315146224814,223,19,127,77
05071,Johnson,Arkansas,USA,2020-05-08 00:00:00,35.5701227411307,-93.4598811568515,33,0,27,6
05073,Lafayette,Arkansas,USA,2020-05-08 00:00:00,33.2409810885401,-93.60703899235,9,1,6,2
05075,Lawrence,Arkansas,USA,2020-05-08 00:00:00,36.041245246497,-91.1070801351009,69,4,30,35
05077,Lee,Arkansas,USA,2020-05-08 00:00:00,34.7806229431371,-90.7820673213101,4,1,2,1
05079,Lincoln,Arkansas,USA,2020-05-08 00:00:00,33.9574736745249,-91.733321197146,899,6,255,638
05083,Logan,Arkansas,USA,2020-05-08 00:00:00,35.2153385104402,-93.7162169926259,3,0,2,1
05085,Lonoke,Arkansas,USA,2020-05-08 00:00:00,34.7542368127708,-91.8887898981209,44,0,36,8
05087,Madison,Arkansas,USA,2020-05-08 00:00:00,36.0109653301939,-93.7245618667027,1,0,1,0
05089,Marion,Arkansas,USA,2020-05-08 00:00:00,36.2683474959129,-92.6842202167373,1,0,1,0
05091,Miller,Arkansas,USA,2020-05-08 00:00:00,33.3121471783389,-93.8915614277306,35,1,28,6
05093,Mississippi,Arkansas,USA,2020-05-08 00:00:00,35.7639016515086,-90.0541660118957,42,0,11,31
05095,Monroe,Arkansas,USA,2020-05-08 00:00:00,34.6778362856211,-91.2038921968546,4,0,4,0
05097,Montgomery,Arkansas,USA,2020-05-08 00:00:00,34.5387970384343,-93.65955294159,1,0,0,1
05099,Nevada,Arkansas,USA,2020-05-08 00:00:00,33.6639660686604,-93.3071433022913,3,0,1,2
05101,Newton,Arkansas,USA,2020-05-08 00:00:00,35.9199743543845,-93.2178669264228,3,0,2,1
05103,Ouachita,Arkansas,USA,2020-05-08 00:00:00,33.5933550411867,-92.8819343530609,8,0,5,3
05105,Perry,Arkansas,USA,2020-05-08 00:00:00,34.9473737475867,-92.9314699115622,7,0,6,1
05107,Phillips,Arkansas,USA,2020-05-08 00:00:00,34.4282912499731,-90.8480221032457,5,1,3,1
05109,Pike,Arkansas,USA,2020-05-08 00:00:00,34.1634980416784,-93.656341665824,3,0,3,0
05111,Poinsett,Arkansas,USA,2020-05-08 00:00:00,35.5740321244216,-90.6629400420817,25,2,14,9
05113,Polk,Arkansas,USA,2020-05-08 00:00:00,34.4858849277395,-94.228060437336,7,0,7,0
05115,Pope,Arkansas,USA,2020-05-08 00:00:00,35.4476360259778,-93.0341542750865,47,0,37,10
05117,Prairie,Arkansas,USA,2020-05-08 00:00:00,34.8297827953914,-91.5527759527538,2,0,2,0
05119,Pulaski,Arkansas,USA,2020-05-08 00:00:00,34.7699753373001,-92.3119257561914,588,22,401,165
05121,Randolph,Arkansas,USA,2020-05-08 00:00:00,36.3414833120282,-91.0277165201921,21,0,14,7
05125,Saline,Arkansas,USA,2020-05-08 00:00:00,34.6466183905015,-92.6765755610162,70,1,57,12
05127,Scott,Arkansas,USA,2020-05-08 00:00:00,34.8607684688714,-94.0632792992572,1,0,1,0
05129,Searcy,Arkansas,USA,2020-05-08 00:00:00,35.9109060183763,-92.6995245165573,6,0,6,0
05131,Sebastian,Arkansas,USA,2020-05-08 00:00:00,35.1993218754543,-94.2741206259198,14,0,13,1
05133,Sevier,Arkansas,USA,2020-05-08 00:00:00,33.9972551652017,-94.2412727038325,14,1,9,4
05135,Sharp,Arkansas,USA,2020-05-08 00:00:00,36.1611646373563,-91.4798585278499,8,0,3,5
05123,St. Francis,Arkansas,USA,2020-05-08 00:00:00,35.021994849105,-90.7478115543339,104,0,72,32
05137,Stone,Arkansas,USA,2020-05-08 00:00:00,35.859865555278,-92.1567129535805,8,0,8,0
05139,Union,Arkansas,USA,2020-05-08 00:00:00,33.1713575380366,-92.5972913760915,73,1,34,38
,unknown,Arkansas,USA,2020-05-08 00:00:00,,,230,0,67,163
05141,Van Buren,Arkansas,USA,2020-05-08 00:00:00,35.5806553789583,-92.5156877896912,28,2,24,2
05143,Washington,Arkansas,USA,2020-05-08 00:00:00,35.979056304394,-94.2155848036387,102,3,63,36
05145,White,Arkansas,USA,2020-05-08 00:00:00,35.2562753346404,-91.7455472672703,35,1,29,5
05147,Woodruff,Arkansas,USA,2020-05-08 00:00:00,35.1863303424366,-91.2430822004453,1,0,1,0
05149,Yell,Arkansas,USA,2020-05-08 00:00:00,35.002577976106,-93.4112514228775,7,1,3,3
,Inmates,BOP,USA,2020-05-08 00:00:00,,,2646,44,591,2011
,Staff,BOP,USA,2020-05-08 00:00:00,,,365,0,278,87
06001,Alameda,California,USA,2020-05-08 00:00:00,37.6504930264531,-121.917998965859,1917,67,0,1850
06003,Alpine,California,USA,2020-05-08 00:00:00,38.5972506331875,-119.820653030387,2,0,1,1
06005,Amador,California,USA,2020-05-08 00:00:00,38.4463895039618,-120.651115620792,8,0,3,5
06007,Butte,California,USA,2020-05-08 00:00:00,39.6669293632579,-121.600671735455,18,0,0,18
06009,Calaveras,California,USA,2020-05-08 00:00:00,38.2046068029696,-120.554132097973,13,0,2,11
06011,Colusa,California,USA,2020-05-08 00:00:00,39.1775731129568,-122.237029615937,3,0,0,3
06013,Contra Costa,California,USA,2020-05-08 00:00:00,37.9233794474726,-121.951073112981,999,29,0,970
06015,Del Norte,California,USA,2020-05-08 00:00:00,41.7449423659812,-123.95780135643,3,0,2,1
06017,El Dorado,California,USA,2020-05-08 00:00:00,38.7787375793829,-120.524649928802,54,0,16,38
06019,Fresno,California,USA,2020-05-08 00:00:00,36.7581801263281,-119.649322632039,777,9,85,683
06021,Glenn,California,USA,2020-05-08 00:00:00,39.5984047697522,-122.392206808103,5,0,2,3
06023,Humboldt,California,USA,2020-05-08 00:00:00,40.7050090829331,-123.915819445786,55,0,50,5
06025,Imperial,California,USA,2020-05-08 00:00:00,33.0395904342316,-115.365336961627,455,11,218,226
06027,Inyo,California,USA,2020-05-08 00:00:00,36.5111268089119,-117.410789686318,19,1,0,18
06029,Kern,California,USA,2020-05-08 00:00:00,35.342847373822,-118.729900423642,1133,13,234,886
06031,Kings,California,USA,2020-05-08 00:00:00,36.0753604528834,-119.815502709414,233,1,0,232
06033,Lake,California,USA,2020-05-08 00:00:00,39.099645344508,-122.753183909106,8,0,0,8
06037,Los Angeles,California,USA,2020-05-08 00:00:00,34.1979978626589,-118.261013849929,29511,1418,232,27861
06039,Madera,California,USA,2020-05-08 00:00:00,37.2180440575135,-119.762644506841,55,2,11,42
06041,Marin,California,USA,2020-05-08 00:00:00,38.05518333996,-122.748858563074,247,14,0,233
06043,Mariposa,California,USA,2020-05-08 00:00:00,37.5815223099115,-119.905517029201,15,0,0,15
06045,Mendocino,California,USA,2020-05-08 00:00:00,39.4336238198048,-123.431553907121,12,0,4,8
06047,Merced,California,USA,2020-05-08 00:00:00,37.1918704709658,-120.717688000026,155,3,16,136
06051,Mono,California,USA,2020-05-08 00:00:00,37.9389903429727,-118.886709261542,28,1,0,27
06053,Monterey,California,USA,2020-05-08 00:00:00,36.2397743955504,-121.308901554045,247,6,100,141
06055,Napa,California,USA,2020-05-08 00:00:00,38.5064964441367,-122.330538464533,78,2,0,76
06057,Nevada,California,USA,2020-05-08 00:00:00,39.3013695789858,-120.768752112923,41,1,0,40
06059,Orange,California,USA,2020-05-08 00:00:00,33.6769134328297,-117.776142821696,3004,65,0,2939
06061,Placer,California,USA,2020-05-08 00:00:00,39.0634313878944,-120.717645936012,165,8,0,157
06063,Plumas,California,USA,2020-05-08 00:00:00,40.004682476861,-120.838597595789,4,0,0,4
06065,Riverside,California,USA,2020-05-08 00:00:00,33.7436800499281,-115.993845894648,4672,186,700,3786
06067,Sacramento,California,USA,2020-05-08 00:00:00,38.4493208546935,-121.344253814156,1153,49,0,1104
06069,San Benito,California,USA,2020-05-08 00:00:00,36.6057058970869,-121.074995528812,53,2,40,11
06071,San Bernardino,California,USA,2020-05-08 00:00:00,34.8414378314505,-116.178461420283,2562,108,0,2454
06073,San Diego,California,USA,2020-05-08 00:00:00,33.0281863939915,-116.77020466435,4319,158,1138,3023
06075,San Francisco,California,USA,2020-05-08 00:00:00,37.7597150131307,-122.693975573034,1806,32,0,1774
06077,San Joaquin,California,USA,2020-05-08 00:00:00,37.9347459675926,-121.271403234988,579,27,0,552
06079,San Luis Obispo,California,USA,2020-05-08 00:00:00,35.3874184800135,-120.45219694507,211,1,111,99
06081,San Mateo,California,USA,2020-05-08 00:00:00,37.4362097340714,-122.355663195328,1377,56,0,1321
06083,Santa Barbara,California,USA,2020-05-08 00:00:00,34.5383440861838,-120.03078618303,613,9,401,203
06085,Santa Clara,California,USA,2020-05-08 00:00:00,37.232484034054,-121.696278853704,2268,126,1,2141
06087,Santa Cruz,California,USA,2020-05-08 00:00:00,37.0216059108349,-122.009787402998,139,2,48,89
06089,Shasta,California,USA,2020-05-08 00:00:00,40.7637666013762,-122.040521531332,31,4,6,21
06093,Siskiyou,California,USA,2020-05-08 00:00:00,41.5926866338733,-122.540367763165,5,0,3,2
06095,Solano,California,USA,2020-05-08 00:00:00,38.2669127870895,-121.940024417502,337,7,143,187
06097,Sonoma,California,USA,2020-05-08 00:00:00,38.5252925749979,-122.922544657884,286,3,109,174
06099,Stanislaus,California,USA,2020-05-08 00:00:00,37.5591374435257,-120.997682894738,461,17,94,350
06101,Sutter,California,USA,2020-05-08 00:00:00,39.0345595213169,-121.694849665433,45,3,22,20
06103,Tehama,California,USA,2020-05-08 00:00:00,40.1257361848857,-122.233884853065,1,1,0,0
06107,Tulare,California,USA,2020-05-08 00:00:00,36.2201566590386,-118.800472480031,969,43,55,871
06109,Tuolumne,California,USA,2020-05-08 00:00:00,38.0276014047026,-119.954753580421,4,0,2,2
,unknown,California,USA,2020-05-08 00:00:00,,,4,2,0,2
06111,Ventura,California,USA,2020-05-08 00:00:00,34.3575285168865,-119.126027192612,608,19,222,367
06113,Yolo,California,USA,2020-05-08 00:00:00,38.6866603947985,-121.901617020446,172,20,0,152
06115,Yuba,California,USA,2020-05-08 00:00:00,39.2690076721685,-121.351262732243,19,1,0,18
08001,Adams,Colorado,USA,2020-05-08 00:00:00,39.8736400746125,-104.337801716087,2046,78,0,1968
08003,Alamosa,Colorado,USA,2020-05-08 00:00:00,37.572893140221,-105.788288196929,25,2,0,23
08005,Arapahoe,Colorado,USA,2020-05-08 00:00:00,39.6497752302919,-104.339234024227,3089,172,0,2917
08007,Archuleta,Colorado,USA,2020-05-08 00:00:00,37.193609436301,-107.04828832354,8,0,0,8
08009,Baca,Colorado,USA,2020-05-08 00:00:00,37.3191787990818,-102.560476645857,12,0,0,12
08013,Boulder,Colorado,USA,2020-05-08 00:00:00,40.0924597674182,-105.357705669723,720,49,157,514
08014,Broomfield,Colorado,USA,2020-05-08 00:00:00,39.9541358004064,-105.052664797654,186,16,0,170
08015,Chaffee,Colorado,USA,2020-05-08 00:00:00,38.7469030854392,-106.194066665223,68,16,0,52
08019,Clear Creek,Colorado,USA,2020-05-08 00:00:00,39.689053853143,-105.644363489659,13,1,0,12
08023,Costilla,Colorado,USA,2020-05-08 00:00:00,37.2779522735419,-105.428249706021,3,0,0,3
08025,Crowley,Colorado,USA,2020-05-08 00:00:00,38.3266610620302,-103.784825660976,4,1,0,3
08027,Custer,Colorado,USA,2020-05-08 00:00:00,38.1086779014792,-105.367471778341,2,0,0,2
08029,Delta,Colorado,USA,2020-05-08 00:00:00,38.8613737904127,-107.862876811138,53,1,0,52
08031,Denver,Colorado,USA,2020-05-08 00:00:00,39.7621646287011,-104.87580142291,3799,199,370,3230
08035,Douglas,Colorado,USA,2020-05-08 00:00:00,39.329724309156,-104.929559460654,573,26,0,547
08037,Eagle,Colorado,USA,2020-05-08 00:00:00,39.6278256158914,-106.695299258596,554,7,0,547
08039,Elbert,Colorado,USA,2020-05-08 00:00:00,39.2865595001842,-104.135889829824,37,1,0,36
08041,El Paso,Colorado,USA,2020-05-08 00:00:00,38.8320890914709,-104.525584561288,1079,77,0,1002
08043,Fremont,Colorado,USA,2020-05-08 00:00:00,38.4729724659032,-105.439657053584,23,0,0,23
08045,Garfield,Colorado,USA,2020-05-08 00:00:00,39.5993071789888,-107.903956153623,100,2,0,98
08047,Gilpin,Colorado,USA,2020-05-08 00:00:00,39.8575436236641,-105.52262119635,1,0,0,1
08049,Grand,Colorado,USA,2020-05-08 00:00:00,40.1026149440364,-106.118358312567,5,0,0,5
08051,Gunnison,Colorado,USA,2020-05-08 00:00:00,38.6667977062728,-107.031700113721,173,6,0,167
08053,Hinsdale,Colorado,USA,2020-05-08 00:00:00,37.8213415755369,-107.300311757721,3,0,0,3
08055,Huerfano,Colorado,USA,2020-05-08 00:00:00,37.6846796381495,-104.960584533782,2,0,0,2
08059,Jefferson,Colorado,USA,2020-05-08 00:00:00,39.5864284092179,-105.250466792686,1542,90,0,1452
08063,Kit Carson,Colorado,USA,2020-05-08 00:00:00,39.3054413226623,-102.602887421695,24,2,0,22
08065,Lake,Colorado,USA,2020-05-08 00:00:00,39.2023794705141,-106.344837734304,23,0,0,23
08067,La Plata,Colorado,USA,2020-05-08 00:00:00,37.2865819539984,-107.843270686596,63,0,0,63
08069,Larimer,Colorado,USA,2020-05-08 00:00:00,40.6664172232106,-105.46114445119,423,19,0,404
08071,Las Animas,Colorado,USA,2020-05-08 00:00:00,37.3158384919188,-104.038699840468,4,0,0,4
08073,Lincoln,Colorado,USA,2020-05-08 00:00:00,38.9880685587166,-103.513965365884,4,0,0,4
08075,Logan,Colorado,USA,2020-05-08 00:00:00,40.7246687187568,-103.110095730707,318,2,0,316
08077,Mesa,Colorado,USA,2020-05-08 00:00:00,39.018290495497,-108.466440182162,50,0,40,10
08079,Mineral,Colorado,USA,2020-05-08 00:00:00,37.6689956824948,-106.924094646339,2,0,0,2
08081,Moffat,Colorado,USA,2020-05-08 00:00:00,40.6184222200142,-108.207290603936,6,0,0,6
08083,Montezuma,Colorado,USA,2020-05-08 00:00:00,37.3384339704658,-108.59666982789,21,2,0,19
08085,Montrose,Colorado,USA,2020-05-08 00:00:00,38.4021560325117,-108.269451134683,114,11,0,103
08087,Morgan,Colorado,USA,2020-05-08 00:00:00,40.2627443760512,-103.809822237447,448,22,0,426
08089,Otero,Colorado,USA,2020-05-08 00:00:00,37.9027017253963,-103.716445684667,10,1,0,9
08091,Ouray,Colorado,USA,2020-05-08 00:00:00,38.1554971802144,-107.769316820324,5,1,0,4
08093,Park,Colorado,USA,2020-05-08 00:00:00,39.1193028617027,-105.717174715667,15,0,0,15
08095,Phillips,Colorado,USA,2020-05-08 00:00:00,40.5938843196691,-102.357579600681,7,0,0,7
08097,Pitkin,Colorado,USA,2020-05-08 00:00:00,39.2171057452219,-106.916577748981,65,2,0,63
08099,Prowers,Colorado,USA,2020-05-08 00:00:00,37.9551831858272,-102.393348977427,8,0,0,8
08101,Pueblo,Colorado,USA,2020-05-08 00:00:00,38.1734202345182,-104.512845554776,163,12,0,151
08103,Rio Blanco,Colorado,USA,2020-05-08 00:00:00,39.9798357498829,-108.217225788196,1,0,0,1
08105,Rio Grande,Colorado,USA,2020-05-08 00:00:00,37.5825228171724,-106.383210359881,7,0,0,7
08107,Routt,Colorado,USA,2020-05-08 00:00:00,40.4850679408481,-106.991193187177,58,6,0,52
08109,Saguache,Colorado,USA,2020-05-08 00:00:00,38.0805527548453,-106.281555561785,4,0,0,4
08111,San Juan,Colorado,USA,2020-05-08 00:00:00,37.7640430729636,-107.67614727491,1,0,0,1
08113,San Miguel,Colorado,USA,2020-05-08 00:00:00,38.0037403984604,-108.405922130535,20,0,0,20
08117,Summit,Colorado,USA,2020-05-08 00:00:00,39.6341708059888,-106.116379137223,155,1,0,154
08119,Teller,Colorado,USA,2020-05-08 00:00:00,38.8821720468029,-105.161826391248,30,2,0,28
,unknown,Colorado,USA,2020-05-08 00:00:00,,,252,5,0,247
08121,Washington,Colorado,USA,2020-05-08 00:00:00,39.9710617873762,-103.2012528805,9,0,0,9
08123,Weld,Colorado,USA,2020-05-08 00:00:00,40.5548298976584,-104.392531356705,2042,113,0,1929
08125,Yuma,Colorado,USA,2020-05-08 00:00:00,40.0028993431632,-102.42422632319,10,0,0,10
09001,Fairfield,Connecticut,USA,2020-05-08 00:00:00,41.2249600831835,-73.3712046144633,12679,977,63,11639
09003,Hartford,Connecticut,USA,2020-05-08 00:00:00,41.8064287932553,-72.7328122494897,6750,867,0,5883
09005,Litchfield,Connecticut,USA,2020-05-08 00:00:00,41.792498317776,-73.245320790479,1114,104,0,1010
09007,Middlesex,Connecticut,USA,2020-05-08 00:00:00,41.4353818043173,-72.523119429589,764,104,0,660
09009,New Haven,Connecticut,USA,2020-05-08 00:00:00,41.348824286814,-72.8998576910913,8678,643,0,8035
09011,New London,Connecticut,USA,2020-05-08 00:00:00,41.4667862463581,-72.1065129033489,742,49,0,693
09013,Tolland,Connecticut,USA,2020-05-08 00:00:00,41.8550659819578,-72.3365016790981,522,46,0,476
,unknown,Connecticut,USA,2020-05-08 00:00:00,,,550,6,0,544
09015,Windham,Connecticut,USA,2020-05-08 00:00:00,41.830045510379,-71.9874782796462,250,5,0,245
10001,Kent,Delaware,USA,2020-05-08 00:00:00,39.0959545402397,-75.5046137017782,945,34,0,911
10003,New Castle,Delaware,USA,2020-05-08 00:00:00,39.5783299004614,-75.6389781251829,2130,89,0,2041
10005,Sussex,Delaware,USA,2020-05-08 00:00:00,38.6832973547198,-75.3395417153243,2834,79,0,2755
,unknown,Delaware,USA,2020-05-08 00:00:00,,,36,3,2110,-2077
,Riverside,Diamond Princess,USA,2020-05-08 00:00:00,,,2,0,0,2
,San Diego,Diamond Princess,USA,2020-05-08 00:00:00,,,1,0,0,1
,Sonoma,Diamond Princess,USA,2020-05-08 00:00:00,,,2,0,0,2
,unknown,Diamond Princess,USA,2020-05-08 00:00:00,,,44,0,0,44
11001,District of Columbia,District of Columbia,USA,2020-05-08 00:00:00,38.9047737145872,-77.0163026701766,5654,285,825,4544
12001,Alachua,Florida,USA,2020-05-08 00:00:00,29.6747549911198,-82.3577015483397,300,5,0,295
12003,Baker,Florida,USA,2020-05-08 00:00:00,30.3310709850251,-82.284587268361,22,3,0,19
12005,Bay,Florida,USA,2020-05-08 00:00:00,30.2376465330345,-85.6326228075584,76,3,0,73
12007,Bradford,Florida,USA,2020-05-08 00:00:00,29.9499595745813,-82.1687777662366,48,2,0,46
12009,Brevard,Florida,USA,2020-05-08 00:00:00,28.3003141420077,-80.7012054832488,325,8,0,317
12011,Broward,Florida,USA,2020-05-08 00:00:00,26.1518560377677,-80.4558842537237,5677,230,0,5447
12013,Calhoun,Florida,USA,2020-05-08 00:00:00,30.4060343342965,-85.1972071433384,24,0,0,24
12015,Charlotte,Florida,USA,2020-05-08 00:00:00,26.8998432653705,-81.9503159677858,304,30,0,274
12017,Citrus,Florida,USA,2020-05-08 00:00:00,28.8475696914208,-82.5201067311357,102,11,0,91
12019,Clay,Florida,USA,2020-05-08 00:00:00,29.9830664455677,-81.8578845258717,292,19,0,273
12021,Collier,Florida,USA,2020-05-08 00:00:00,26.0992389901092,-81.38097305518,705,27,0,678
12023,Columbia,Florida,USA,2020-05-08 00:00:00,30.2242399397413,-82.6215388924831,101,2,0,99
12027,DeSoto,Florida,USA,2020-05-08 00:00:00,27.1863023348171,-81.8094429515092,42,5,0,37
12029,Dixie,Florida,USA,2020-05-08 00:00:00,29.5812415277413,-83.1870324531344,11,0,0,11
12031,Duval,Florida,USA,2020-05-08 00:00:00,30.3354403302881,-81.6480093212935,1083,28,0,1055
12033,Escambia,Florida,USA,2020-05-08 00:00:00,30.6143960313116,-87.3413643298178,616,16,0,600
12035,Flagler,Florida,USA,2020-05-08 00:00:00,29.471142648229,-81.2929913884167,145,4,0,141
12037,Franklin,Florida,USA,2020-05-08 00:00:00,29.8116835857271,-84.8004565948054,2,0,0,2
12039,Gadsden,Florida,USA,2020-05-08 00:00:00,30.5794688821059,-84.613599329426,121,0,0,121
12041,Gilchrist,Florida,USA,2020-05-08 00:00:00,29.725822716152,-82.8003665306194,6,0,0,6
12043,Glades,Florida,USA,2020-05-08 00:00:00,26.9564459351171,-81.189029385339,6,1,0,5
12045,Gulf,Florida,USA,2020-05-08 00:00:00,29.9086211231393,-85.2610062794447,1,0,0,1
12047,Hamilton,Florida,USA,2020-05-08 00:00:00,30.4964266892636,-82.9479591393416,7,0,0,7
12049,Hardee,Florida,USA,2020-05-08 00:00:00,27.4927094814828,-81.8100059394979,35,0,0,35
12051,Hendry,Florida,USA,2020-05-08 00:00:00,26.5534898512854,-81.1659012495648,129,5,7,117
12053,Hernando,Florida,USA,2020-05-08 00:00:00,28.5561708512564,-82.4684895116375,97,5,0,92
12055,Highlands,Florida,USA,2020-05-08 00:00:00,27.3433797347118,-81.3410379055865,90,7,0,83
12057,Hillsborough,Florida,USA,2020-05-08 00:00:00,27.9062278358632,-82.3469161530334,1364,36,0,1328
12059,Holmes,Florida,USA,2020-05-08 00:00:00,30.867890607802,-85.8141023534013,10,0,0,10
12061,Indian River,Florida,USA,2020-05-08 00:00:00,27.6963908471367,-80.5740896149214,99,8,0,91
12063,Jackson,Florida,USA,2020-05-08 00:00:00,30.79539112363,-85.2154596916405,31,0,0,31
12065,Jefferson,Florida,USA,2020-05-08 00:00:00,30.4234582107208,-83.9004744786373,28,2,0,26
12067,Lafayette,Florida,USA,2020-05-08 00:00:00,29.9855183221037,-83.1810673053737,3,0,0,3
12069,Lake,Florida,USA,2020-05-08 00:00:00,28.7614688332465,-81.7113031676108,237,14,0,223
12071,Lee,Florida,USA,2020-05-08 00:00:00,26.5756896561485,-81.9154527285327,1212,54,0,1158
12073,Leon,Florida,USA,2020-05-08 00:00:00,30.4580378929684,-84.2778815189221,249,6,0,243
12075,Levy,Florida,USA,2020-05-08 00:00:00,29.2822055783213,-82.7886132018454,20,0,4,16
12077,Liberty,Florida,USA,2020-05-08 00:00:00,30.241363147775,-84.8829111581692,114,0,0,114
12079,Madison,Florida,USA,2020-05-08 00:00:00,30.4441430276674,-83.470122826374,61,3,0,58
12081,Manatee,Florida,USA,2020-05-08 00:00:00,27.477518874933,-82.357545871056,737,68,0,669
12083,Marion,Florida,USA,2020-05-08 00:00:00,29.2102022903719,-82.0566756823342,202,5,0,197
12085,Martin,Florida,USA,2020-05-08 00:00:00,27.0816164391819,-80.3984639524983,233,6,0,227
12086,Miami-Dade,Florida,USA,2020-05-08 00:00:00,25.6089674857902,-80.4986673175478,13585,454,0,13131
12087,Monroe,Florida,USA,2020-05-08 00:00:00,25.0467803277016,-81.185692417942,80,3,0,77
12089,Nassau,Florida,USA,2020-05-08 00:00:00,30.6105780996692,-81.7714179131667,60,1,0,59
12091,Okaloosa,Florida,USA,2020-05-08 00:00:00,30.6650297246931,-86.5921750794104,163,5,0,158
12093,Okeechobee,Florida,USA,2020-05-08 00:00:00,27.3863036127284,-80.888585010984,22,0,0,22
12095,Orange,Florida,USA,2020-05-08 00:00:00,28.5144162587658,-81.3234735280734,1474,36,0,1438
12097,Osceola,Florida,USA,2020-05-08 00:00:00,28.0626646155782,-81.1494997552079,544,11,0,533
12099,Palm Beach,Florida,USA,2020-05-08 00:00:00,26.647564568821,-80.4365110483662,3587,222,0,3365
12101,Pasco,Florida,USA,2020-05-08 00:00:00,28.3067419076007,-82.4388697989578,289,9,0,280
12103,Pinellas,Florida,USA,2020-05-08 00:00:00,27.9026762041344,-82.7395539463768,820,56,0,764
12105,Polk,Florida,USA,2020-05-08 00:00:00,27.9488714856622,-81.6976853960704,594,30,0,564
12107,Putnam,Florida,USA,2020-05-08 00:00:00,29.6086348478635,-81.7443041287585,120,4,0,116
12113,Santa Rosa,Florida,USA,2020-05-08 00:00:00,30.692904029121,-87.0184494885955,160,8,0,152
12115,Sarasota,Florida,USA,2020-05-08 00:00:00,27.1824778115173,-82.3649735212899,412,51,0,361
12117,Seminole,Florida,USA,2020-05-08 00:00:00,28.7169755783225,-81.2363275276042,410,8,163,239
12109,St. Johns,Florida,USA,2020-05-08 00:00:00,29.9121811706382,-81.4098866826863,222,4,0,218
12111,St. Lucie,Florida,USA,2020-05-08 00:00:00,27.3808664202678,-80.4456030775775,271,25,0,246
12119,Sumter,Florida,USA,2020-05-08 00:00:00,28.7048225353117,-82.0809953635659,238,14,0,224
12121,Suwannee,Florida,USA,2020-05-08 00:00:00,30.1956117481251,-82.9914923725057,144,17,0,127
12123,Taylor,Florida,USA,2020-05-08 00:00:00,30.0195666060803,-83.6189726465423,3,0,0,3
12125,Union,Florida,USA,2020-05-08 00:00:00,30.0438391148339,-82.3714410129179,5,0,0,5
,unknown,Florida,USA,2020-05-08 00:00:00,,,35,47,0,-12
12127,Volusia,Florida,USA,2020-05-08 00:00:00,29.063447505109,-81.148574357296,534,27,0,507
12129,Wakulla,Florida,USA,2020-05-08 00:00:00,30.1477719788589,-84.3756074885221,29,1,0,28
12131,Walton,Florida,USA,2020-05-08 00:00:00,30.6184688458428,-86.1715163089418,50,1,0,49
12133,Washington,Florida,USA,2020-05-08 00:00:00,30.6105923313225,-85.6653287162639,12,0,0,12
13001,Appling,Georgia,USA,2020-05-08 00:00:00,31.7492803518252,-82.2889835820389,88,10,0,78
13003,Atkinson,Georgia,USA,2020-05-08 00:00:00,31.2971083422433,-82.8799928977683,20,1,0,19
13005,Bacon,Georgia,USA,2020-05-08 00:00:00,31.5536748311415,-82.4526850981735,32,1,0,31
13007,Baker,Georgia,USA,2020-05-08 00:00:00,31.3261839270266,-84.4446694741443,29,2,0,27
13009,Baldwin,Georgia,USA,2020-05-08 00:00:00,33.0692757535117,-83.2495906334234,270,10,0,260
13011,Banks,Georgia,USA,2020-05-08 00:00:00,34.3541370112974,-83.4973801652283,35,0,0,35
13013,Barrow,Georgia,USA,2020-05-08 00:00:00,33.9931962064337,-83.7127549805335,191,5,0,186
13015,Bartow,Georgia,USA,2020-05-08 00:00:00,34.2376620908578,-84.8403384771224,360,32,0,328
13017,Ben Hill,Georgia,USA,2020-05-08 00:00:00,31.7597819469321,-83.2204589708661,38,0,0,38
13019,Berrien,Georgia,USA,2020-05-08 00:00:00,31.2760599040845,-83.2296220000422,19,0,0,19
13021,Bibb,Georgia,USA,2020-05-08 00:00:00,32.8064982237875,-83.6974200138051,379,14,0,365
13023,Bleckley,Georgia,USA,2020-05-08 00:00:00,32.4344414461714,-83.3278388254759,22,0,0,22
13025,Brantley,Georgia,USA,2020-05-08 00:00:00,31.1968761426441,-81.9818955745034,23,2,0,21
13027,Brooks,Georgia,USA,2020-05-08 00:00:00,30.8419677363408,-83.5802119065179,64,7,0,57
13029,Bryan,Georgia,USA,2020-05-08 00:00:00,32.0132243350272,-81.4424722248497,57,4,0,53
13031,Bulloch,Georgia,USA,2020-05-08 00:00:00,32.3968141785687,-81.7431781429014,43,2,0,41
13033,Burke,Georgia,USA,2020-05-08 00:00:00,33.0611535027077,-82.0007811537151,90,3,0,87
13035,Butts,Georgia,USA,2020-05-08 00:00:00,33.2878507429459,-83.9571695116309,167,17,0,150
13037,Calhoun,Georgia,USA,2020-05-08 00:00:00,31.529197274257,-84.6245076945603,110,5,0,105
13039,Camden,Georgia,USA,2020-05-08 00:00:00,30.9224883014933,-81.6363849358109,35,1,0,34
13043,Candler,Georgia,USA,2020-05-08 00:00:00,32.4034427819836,-82.0736728222026,7,0,0,7
13045,Carroll,Georgia,USA,2020-05-08 00:00:00,33.582797851541,-85.0797630544994,389,15,0,374
13047,Catoosa,Georgia,USA,2020-05-08 00:00:00,34.9036574214088,-85.138247006528,52,0,0,52
13049,Charlton,Georgia,USA,2020-05-08 00:00:00,30.7817272015735,-82.1376881411666,14,0,0,14
13051,Chatham,Georgia,USA,2020-05-08 00:00:00,31.973951121112,-81.0939703133233,281,12,0,269
13053,Chattahoochee,Georgia,USA,2020-05-08 00:00:00,32.3469712750069,-84.7870462058597,13,0,0,13
13055,Chattooga,Georgia,USA,2020-05-08 00:00:00,34.475015260693,-85.3452913608679,16,2,0,14
13057,Cherokee,Georgia,USA,2020-05-08 00:00:00,34.243938365389,-84.4761934265774,568,17,0,551
13059,Clarke,Georgia,USA,2020-05-08 00:00:00,33.9511687466807,-83.3673290793422,176,13,0,163
13061,Clay,Georgia,USA,2020-05-08 00:00:00,31.6262755156374,-84.9801029119249,27,3,0,24
13063,Clayton,Georgia,USA,2020-05-08 00:00:00,33.5419006063479,-84.3576542516937,878,34,0,844
13065,Clinch,Georgia,USA,2020-05-08 00:00:00,30.9149468971101,-82.7062370644997,16,0,0,16
13067,Cobb,Georgia,USA,2020-05-08 00:00:00,33.9414815246681,-84.5766842460772,2023,108,0,1915
13069,Coffee,Georgia,USA,2020-05-08 00:00:00,31.5492717947229,-82.8492009826829,164,8,0,156
13071,Colquitt,Georgia,USA,2020-05-08 00:00:00,31.1883904668327,-83.7688482856128,201,10,0,191
13073,Columbia,Georgia,USA,2020-05-08 00:00:00,33.5441179100768,-82.2640527022526,170,5,0,165
13075,Cook,Georgia,USA,2020-05-08 00:00:00,31.1539910285118,-83.430465067325,31,1,0,30
13077,Coweta,Georgia,USA,2020-05-08 00:00:00,33.3534616689087,-84.7633607428346,257,4,0,253
13079,Crawford,Georgia,USA,2020-05-08 00:00:00,32.7145016625647,-83.9863423246464,19,0,0,19
13081,Crisp,Georgia,USA,2020-05-08 00:00:00,31.922929918111,-83.7681022210043,181,6,0,175
13083,Dade,Georgia,USA,2020-05-08 00:00:00,34.8545206619892,-85.5045272077817,17,1,0,16
13085,Dawson,Georgia,USA,2020-05-08 00:00:00,34.4442980744047,-84.170635687464,73,1,0,72
13087,Decatur,Georgia,USA,2020-05-08 00:00:00,30.8783441068779,-84.5790701498239,105,2,0,103
13089,DeKalb,Georgia,USA,2020-05-08 00:00:00,33.7715468712598,-84.226432415972,2396,62,0,2334
13091,Dodge,Georgia,USA,2020-05-08 00:00:00,32.1721824487506,-83.168399978042,31,1,0,30
13093,Dooly,Georgia,USA,2020-05-08 00:00:00,32.1571759798895,-83.7987668507356,134,13,0,121
13095,Dougherty,Georgia,USA,2020-05-08 00:00:00,31.5333740309288,-84.2162536822807,1566,126,340,1100
13097,Douglas,Georgia,USA,2020-05-08 00:00:00,33.7018283779716,-84.767972837316,366,11,0,355
13099,Early,Georgia,USA,2020-05-08 00:00:00,31.3228327132613,-84.9036434232915,224,26,0,198
13101,Echols,Georgia,USA,2020-05-08 00:00:00,30.7100896074176,-82.8939351883126,6,0,0,6
13103,Effingham,Georgia,USA,2020-05-08 00:00:00,32.3673093944748,-81.3413404834434,38,1,0,37
13105,Elbert,Georgia,USA,2020-05-08 00:00:00,34.116793284563,-82.8400954978773,34,0,0,34
13107,Emanuel,Georgia,USA,2020-05-08 00:00:00,32.5897619047465,-82.3017084620174,23,0,0,23
13109,Evans,Georgia,USA,2020-05-08 00:00:00,32.1567629595799,-81.8868846223866,5,0,0,5
13111,Fannin,Georgia,USA,2020-05-08 00:00:00,34.8641146531664,-84.3198525835881,34,1,0,33
13113,Fayette,Georgia,USA,2020-05-08 00:00:00,33.4139430365367,-84.4941911258682,190,12,0,178
13115,Floyd,Georgia,USA,2020-05-08 00:00:00,34.2631626889522,-85.21427864991,155,12,0,143
13117,Forsyth,Georgia,USA,2020-05-08 00:00:00,34.2255463859684,-84.1250173788988,361,10,0,351
13119,Franklin,Georgia,USA,2020-05-08 00:00:00,34.375427315228,-83.2291886373941,24,1,0,23
13121,Fulton,Georgia,USA,2020-05-08 00:00:00,33.790283010444,-84.4669897338819,3258,137,0,3121
13123,Gilmer,Georgia,USA,2020-05-08 00:00:00,34.691178105663,-84.4556269832198,88,0,0,88
13125,Glascock,Georgia,USA,2020-05-08 00:00:00,33.2292799721344,-82.6107022318105,1,1,0,0
13127,Glynn,Georgia,USA,2020-05-08 00:00:00,31.2132418055316,-81.493697593483,69,1,0,68
13129,Gordon,Georgia,USA,2020-05-08 00:00:00,34.5031701949435,-84.8759139253506,120,15,0,105
13131,Grady,Georgia,USA,2020-05-08 00:00:00,30.8746728357694,-84.2344263446413,80,4,0,76
13133,Greene,Georgia,USA,2020-05-08 00:00:00,33.5787842008185,-83.1666552038154,56,5,0,51
13135,Gwinnett,Georgia,USA,2020-05-08 00:00:00,33.9617197861228,-84.0236132972337,2252,84,0,2168
13137,Habersham,Georgia,USA,2020-05-08 00:00:00,34.6310256133357,-83.5311320934269,383,14,0,369
13139,Hall,Georgia,USA,2020-05-08 00:00:00,34.3168900969882,-83.8196786400023,1958,27,0,1931
13141,Hancock,Georgia,USA,2020-05-08 00:00:00,33.2704260085155,-83.0006868923361,117,3,0,114
13143,Haralson,Georgia,USA,2020-05-08 00:00:00,33.7942334247326,-85.2110263502328,32,2,0,30
13145,Harris,Georgia,USA,2020-05-08 00:00:00,32.7360040874671,-84.9089881157173,61,2,0,59
13147,Hart,Georgia,USA,2020-05-08 00:00:00,34.3508983325138,-82.9642475975551,15,0,0,15
13149,Heard,Georgia,USA,2020-05-08 00:00:00,33.2970283836901,-85.128270367,14,1,0,13
13151,Henry,Georgia,USA,2020-05-08 00:00:00,33.4529935799135,-84.1541806022204,559,14,0,545
13153,Houston,Georgia,USA,2020-05-08 00:00:00,32.4589964270482,-83.6662408918527,281,14,0,267
13155,Irwin,Georgia,USA,2020-05-08 00:00:00,31.6022829516799,-83.2763750394364,21,1,0,20
13157,Jackson,Georgia,USA,2020-05-08 00:00:00,34.1338827438439,-83.5663480377148,119,3,0,116
13159,Jasper,Georgia,USA,2020-05-08 00:00:00,33.3164335784831,-83.6880895837504,26,0,0,26
13161,Jeff Davis,Georgia,USA,2020-05-08 00:00:00,31.8055957772233,-82.6369408915608,22,1,0,21
13163,Jefferson,Georgia,USA,2020-05-08 00:00:00,33.0548441405322,-82.418151449628,17,1,0,16
13165,Jenkins,Georgia,USA,2020-05-08 00:00:00,32.7924711253683,-81.9635320120561,17,1,0,16
13167,Johnson,Georgia,USA,2020-05-08 00:00:00,32.7014650504454,-82.6600810996901,64,2,0,62
13169,Jones,Georgia,USA,2020-05-08 00:00:00,33.0251331683137,-83.5605241695267,31,0,0,31
13171,Lamar,Georgia,USA,2020-05-08 00:00:00,33.0765357598836,-84.1394626621815,40,2,0,38
13173,Lanier,Georgia,USA,2020-05-08 00:00:00,31.0378936572035,-83.0626533592302,10,1,0,9
13175,Laurens,Georgia,USA,2020-05-08 00:00:00,32.4636565938292,-82.9222383646387,72,1,0,71
13177,Lee,Georgia,USA,2020-05-08 00:00:00,31.7795065576513,-84.1411344532297,339,22,0,317
13179,Liberty,Georgia,USA,2020-05-08 00:00:00,31.8072288627671,-81.456255685405,41,0,0,41
13181,Lincoln,Georgia,USA,2020-05-08 00:00:00,33.7936596460869,-82.4512128043406,12,0,0,12
13183,Long,Georgia,USA,2020-05-08 00:00:00,31.752584831034,-81.7457669756129,5,0,0,5
13185,Lowndes,Georgia,USA,2020-05-08 00:00:00,30.8338568987822,-83.2677076920602,173,4,0,169
13187,Lumpkin,Georgia,USA,2020-05-08 00:00:00,34.5721889489378,-84.0026558338555,76,2,0,74
13193,Macon,Georgia,USA,2020-05-08 00:00:00,32.3583825945391,-84.0424794130939,81,3,0,78
13195,Madison,Georgia,USA,2020-05-08 00:00:00,34.1277855794746,-83.2090415693764,28,1,0,27
13197,Marion,Georgia,USA,2020-05-08 00:00:00,32.3533781815345,-84.524637886917,42,1,0,41
13189,Mcduffie,Georgia,USA,2020-05-08 00:00:00,33.4828592098825,-82.4813683615479,50,4,0,46
13191,Mcintosh,Georgia,USA,2020-05-08 00:00:00,31.4838062078299,-81.3755663745883,6,0,0,6
13199,Meriwether,Georgia,USA,2020-05-08 00:00:00,33.0406559358523,-84.6883115803695,61,1,0,60
13201,Miller,Georgia,USA,2020-05-08 00:00:00,31.1639914480771,-84.7307216738473,33,0,0,33
13205,Mitchell,Georgia,USA,2020-05-08 00:00:00,31.2253196926317,-84.1943088345569,340,33,0,307
13207,Monroe,Georgia,USA,2020-05-08 00:00:00,33.0138972496084,-83.9186821405408,34,4,0,30
13209,Montgomery,Georgia,USA,2020-05-08 00:00:00,32.1733642109072,-82.5348172563488,2,0,0,2
13211,Morgan,Georgia,USA,2020-05-08 00:00:00,33.5908249243941,-83.4923823004668,30,0,0,30
13213,Murray,Georgia,USA,2020-05-08 00:00:00,34.7884475042116,-84.748093578549,41,1,0,40
13215,Muscogee,Georgia,USA,2020-05-08 00:00:00,32.509958369575,-84.8770429861057,354,12,0,342
13217,Newton,Georgia,USA,2020-05-08 00:00:00,33.5550489457689,-83.8501865374818,236,8,0,228
,Non-Georgia Resident,Georgia,USA,2020-05-08 00:00:00,,,1089,19,0,1070
13219,Oconee,Georgia,USA,2020-05-08 00:00:00,33.8349402866706,-83.4370547810324,67,1,0,66
13221,Oglethorpe,Georgia,USA,2020-05-08 00:00:00,33.8806479609272,-83.0807032107824,53,3,0,50
13223,Paulding,Georgia,USA,2020-05-08 00:00:00,33.9205455549212,-84.867288502976,218,10,0,208
13225,Peach,Georgia,USA,2020-05-08 00:00:00,32.5687919023949,-83.8268633608425,61,2,0,59
13227,Pickens,Georgia,USA,2020-05-08 00:00:00,34.4643197803204,-84.4656390577548,31,2,0,29
13229,Pierce,Georgia,USA,2020-05-08 00:00:00,31.3587576020699,-82.2127427051316,59,3,0,56
13231,Pike,Georgia,USA,2020-05-08 00:00:00,33.092265246884,-84.3892346459137,41,2,0,39
13233,Polk,Georgia,USA,2020-05-08 00:00:00,34.0017844854498,-85.188153382188,64,0,0,64
13235,Pulaski,Georgia,USA,2020-05-08 00:00:00,32.2322990847319,-83.4759611367747,34,1,0,33
13237,Putnam,Georgia,USA,2020-05-08 00:00:00,33.3217673671441,-83.3728413605378,52,5,0,47
13239,Quitman,Georgia,USA,2020-05-08 00:00:00,31.8673305599028,-85.0187841575649,8,1,0,7
13241,Rabun,Georgia,USA,2020-05-08 00:00:00,34.8817246172596,-83.4020764833524,13,1,0,12
13243,Randolph,Georgia,USA,2020-05-08 00:00:00,31.7626226687929,-84.7541920737567,167,20,0,147
13245,Richmond,Georgia,USA,2020-05-08 00:00:00,33.359632231366,-82.0735477738999,435,16,0,419
13247,Rockdale,Georgia,USA,2020-05-08 00:00:00,33.6542354351508,-84.0266082893243,226,7,0,219
13249,Schley,Georgia,USA,2020-05-08 00:00:00,32.261685807704,-84.3147208165685,16,1,0,15
13251,Screven,Georgia,USA,2020-05-08 00:00:00,32.7505866271117,-81.6119345544463,17,1,0,16
13253,Seminole,Georgia,USA,2020-05-08 00:00:00,30.9387779364668,-84.8688701105868,33,2,0,31
13255,Spalding,Georgia,USA,2020-05-08 00:00:00,33.2608769535853,-84.2841507001663,224,11,0,213
13257,Stephens,Georgia,USA,2020-05-08 00:00:00,34.5539435236061,-83.2934335295811,91,1,0,90
13259,Stewart,Georgia,USA,2020-05-08 00:00:00,32.0784621843039,-84.83520237444,27,0,0,27
13261,Sumter,Georgia,USA,2020-05-08 00:00:00,32.0399593960162,-84.19705605155,391,29,0,362
13263,Talbot,Georgia,USA,2020-05-08 00:00:00,32.6994863029818,-84.5330101768602,26,1,0,25
13265,Taliaferro,Georgia,USA,2020-05-08 00:00:00,33.5660908407663,-82.8787644686708,1,0,0,1
13267,Tattnall,Georgia,USA,2020-05-08 00:00:00,32.0457484070556,-82.0581758792658,9,0,0,9
13269,Taylor,Georgia,USA,2020-05-08 00:00:00,32.5554592714931,-84.2504642347869,18,2,0,16
13271,Telfair,Georgia,USA,2020-05-08 00:00:00,31.9298009679804,-82.9389875254959,28,0,0,28
13273,Terrell,Georgia,USA,2020-05-08 00:00:00,31.7768809863607,-84.4369222013261,194,21,0,173
13275,Thomas,Georgia,USA,2020-05-08 00:00:00,30.8636815475162,-83.9193134093585,227,22,0,205
13277,Tift,Georgia,USA,2020-05-08 00:00:00,31.4574378291848,-83.5265943229298,139,6,0,133
13279,Toombs,Georgia,USA,2020-05-08 00:00:00,32.1217203314225,-82.3312929098846,39,3,0,36
13281,Towns,Georgia,USA,2020-05-08 00:00:00,34.9167055033785,-83.7372785445258,21,1,0,20
13283,Treutlen,Georgia,USA,2020-05-08 00:00:00,32.403881503453,-82.5672825269947,5,0,0,5
13285,Troup,Georgia,USA,2020-05-08 00:00:00,33.0335103757303,-85.0283367990567,171,5,0,166
13287,Turner,Georgia,USA,2020-05-08 00:00:00,31.7163847519142,-83.6240929755637,73,11,0,62
13289,Twiggs,Georgia,USA,2020-05-08 00:00:00,32.6672014401959,-83.4270835326775,8,0,0,8
13291,Union,Georgia,USA,2020-05-08 00:00:00,34.8340257189179,-83.9907199550225,33,1,0,32
,unknown,Georgia,USA,2020-05-08 00:00:00,,,1300,8,0,1292
13293,Upson,Georgia,USA,2020-05-08 00:00:00,32.8812700423761,-84.2993435146146,246,24,0,222
13295,Walker,Georgia,USA,2020-05-08 00:00:00,34.7356590025718,-85.3009850599393,61,0,0,61
13297,Walton,Georgia,USA,2020-05-08 00:00:00,33.7815571316202,-83.7338466261785,148,5,0,143
13299,Ware,Georgia,USA,2020-05-08 00:00:00,31.0536324937452,-82.4236757904168,148,13,0,135
13301,Warren,Georgia,USA,2020-05-08 00:00:00,33.4089633624462,-82.676761719057,13,0,0,13
13303,Washington,Georgia,USA,2020-05-08 00:00:00,32.9695357353357,-82.7958991684627,51,1,0,50
13305,Wayne,Georgia,USA,2020-05-08 00:00:00,31.5514336787706,-81.9167587357733,13,0,0,13
13307,Webster,Georgia,USA,2020-05-08 00:00:00,32.0466488615557,-84.551052655707,10,2,0,8
13309,Wheeler,Georgia,USA,2020-05-08 00:00:00,32.1170652349445,-82.7245932678332,5,0,0,5
13311,White,Georgia,USA,2020-05-08 00:00:00,34.6463905657887,-83.7471082329807,87,2,0,85
13313,Whitfield,Georgia,USA,2020-05-08 00:00:00,34.8056115749137,-84.9672206823049,140,6,0,134
13315,Wilcox,Georgia,USA,2020-05-08 00:00:00,31.9728932008592,-83.4323638025197,92,12,0,80
13317,Wilkes,Georgia,USA,2020-05-08 00:00:00,33.7819451824835,-82.7432267529949,26,0,0,26
13319,Wilkinson,Georgia,USA,2020-05-08 00:00:00,32.8024055204164,-83.1712490668569,40,2,0,38
13321,Worth,Georgia,USA,2020-05-08 00:00:00,31.551511674479,-83.8508756932661,179,13,0,166
,San Diego,Grand Princess,USA,2020-05-08 00:00:00,,,1,0,0,1
,Solano,Grand Princess,USA,2020-05-08 00:00:00,,,7,0,0,7
,unknown,Grand Princess,USA,2020-05-08 00:00:00,,,95,0,0,95
66010,Guam,Guam,USA,2020-05-08 00:00:00,13.4427595478513,144.769451697331,149,5,128,16
15001,Hawaii,Hawaii,USA,2020-05-08 00:00:00,19.6023968175419,-155.522885864416,74,0,67,7
15003,Honolulu,Hawaii,USA,2020-05-08 00:00:00,23.7186403965059,-164.736740347207,408,11,384,13
15007,Kauai,Hawaii,USA,2020-05-08 00:00:00,22.0110798697984,-159.705438200223,21,0,21,0
15009,Maui,Hawaii,USA,2020-05-08 00:00:00,20.867735408027,-156.617058801494,116,6,93,17
,Residents Diagnosed Outside of HI,Hawaii,USA,2020-05-08 00:00:00,,,10,0,0,10
,unknown,Hawaii,USA,2020-05-08 00:00:00,,,7,0,482,-475
16001,Ada,Idaho,USA,2020-05-08 00:00:00,43.4511000414791,-116.241166630534,717,19,0,698
16003,Adams,Idaho,USA,2020-05-08 00:00:00,44.8895880248223,-116.453882862476,3,0,0,3
16005,Bannock,Idaho,USA,2020-05-08 00:00:00,42.6684852128362,-112.224618777094,12,0,0,12
16011,Bingham,Idaho,USA,2020-05-08 00:00:00,43.2165580515827,-112.398078522873,4,0,0,4
16013,Blaine,Idaho,USA,2020-05-08 00:00:00,43.4119405619515,-113.98014757346,499,5,0,494
16017,Bonner,Idaho,USA,2020-05-08 00:00:00,48.300025003311,-116.601061372944,4,0,0,4
16019,Bonneville,Idaho,USA,2020-05-08 00:00:00,43.3877423793742,-111.614752704879,28,0,0,28
16025,Camas,Idaho,USA,2020-05-08 00:00:00,43.4633261175981,-114.805776873473,1,0,0,1
16027,Canyon,Idaho,USA,2020-05-08 00:00:00,43.6250870279475,-116.709270123964,270,7,0,263
16029,Caribou,Idaho,USA,2020-05-08 00:00:00,42.7705180974249,-111.562215273973,1,0,0,1
16031,Cassia,Idaho,USA,2020-05-08 00:00:00,42.2838809991721,-113.600088286998,13,1,0,12
16037,Custer,Idaho,USA,2020-05-08 00:00:00,44.2411163795511,-114.281712395505,2,0,0,2
16039,Elmore,Idaho,USA,2020-05-08 00:00:00,43.3538854014125,-115.469262352651,31,2,0,29
16043,Fremont,Idaho,USA,2020-05-08 00:00:00,44.2287741071698,-111.48195586549,3,0,0,3
16045,Gem,Idaho,USA,2020-05-08 00:00:00,44.0615465409641,-116.397518963667,14,0,0,14
16047,Gooding,Idaho,USA,2020-05-08 00:00:00,42.9710217011814,-114.811514939027,14,0,0,14
16049,Idaho,Idaho,USA,2020-05-08 00:00:00,45.8441976983815,-115.46748731017,3,0,0,3
16051,Jefferson,Idaho,USA,2020-05-08 00:00:00,43.8201324534862,-112.311302460899,5,0,0,5
16053,Jerome,Idaho,USA,2020-05-08 00:00:00,42.6899047449117,-114.263941363869,64,2,0,62
16055,Kootenai,Idaho,USA,2020-05-08 00:00:00,47.6743566297059,-116.701762030981,62,0,0,62
16057,Latah,Idaho,USA,2020-05-08 00:00:00,46.8161762124037,-116.711723178887,5,0,0,5
16059,Lemhi,Idaho,USA,2020-05-08 00:00:00,44.9432516760895,-113.93325164207,1,0,0,1
16063,Lincoln,Idaho,USA,2020-05-08 00:00:00,43.0023986959122,-114.138200807992,29,0,0,29
16065,Madison,Idaho,USA,2020-05-08 00:00:00,43.7841402516355,-111.659188485175,13,0,0,13
16067,Minidoka,Idaho,USA,2020-05-08 00:00:00,42.8542597175682,-113.63746180269,11,0,0,11
16069,Nez Perce,Idaho,USA,2020-05-08 00:00:00,46.3268492279703,-116.750277131226,78,18,0,60
16073,Owyhee,Idaho,USA,2020-05-08 00:00:00,42.5814260738905,-116.169968363466,8,0,0,8
16075,Payette,Idaho,USA,2020-05-08 00:00:00,44.0067583130813,-116.760845389668,17,2,0,15
16077,Power,Idaho,USA,2020-05-08 00:00:00,42.6936561132656,-112.84065596592,2,0,0,2
16081,Teton,Idaho,USA,2020-05-08 00:00:00,43.759429876022,-111.207614544595,10,0,0,10
16083,Twin Falls,Idaho,USA,2020-05-08 00:00:00,42.3558758961856,-114.667148471729,231,11,0,220
,unknown,Idaho,USA,2020-05-08 00:00:00,,,18,0,867,-849
16085,Valley,Idaho,USA,2020-05-08 00:00:00,44.7666370786071,-115.566279020621,2,0,0,2
16087,Washington,Idaho,USA,2020-05-08 00:00:00,44.4524547726094,-116.78478133326,1,0,0,1
17001,Adams,Illinois,USA,2020-05-08 00:00:00,39.9879052608721,-91.1884921409481,40,1,5,34
17003,Alexander,Illinois,USA,2020-05-08 00:00:00,37.1915933609575,-89.3376041230708,6,0,0,6
17005,Bond,Illinois,USA,2020-05-08 00:00:00,38.8868296401445,-89.435544238084,8,1,2,5
17007,Boone,Illinois,USA,2020-05-08 00:00:00,42.3230756866124,-88.8233754156687,168,11,0,157
17009,Brown,Illinois,USA,2020-05-08 00:00:00,39.9617616287567,-90.750355621161,6,0,0,6
17011,Bureau,Illinois,USA,2020-05-08 00:00:00,41.4041459263944,-89.5286557576738,12,1,0,11
17013,Calhoun,Illinois,USA,2020-05-08 00:00:00,39.1692979289421,-90.6675721555931,1,0,1,0
17015,Carroll,Illinois,USA,2020-05-08 00:00:00,42.0687539209441,-89.9343041982084,10,2,0,8
17017,Cass,Illinois,USA,2020-05-08 00:00:00,39.9735467173741,-90.2473750539613,50,0,0,50
17019,Champaign,Illinois,USA,2020-05-08 00:00:00,40.1400890018296,-88.199170667364,229,6,62,161
17021,Christian,Illinois,USA,2020-05-08 00:00:00,39.5458317531258,-89.2772543124648,27,4,0,23
17023,Clark,Illinois,USA,2020-05-08 00:00:00,39.3335754723126,-87.7877174065863,5,0,0,5
17025,Clay,Illinois,USA,2020-05-08 00:00:00,38.7541714951253,-88.4902374224868,2,0,0,2
17027,Clinton,Illinois,USA,2020-05-08 00:00:00,38.606462187604,-89.4224823888538,122,8,20,94
17029,Coles,Illinois,USA,2020-05-08 00:00:00,39.520296146085,-88.2217534977603,22,1,0,21
17031,Cook,Illinois,USA,2020-05-08 00:00:00,41.8954290220872,-87.6461407931076,48341,2110,2,46229
17033,Crawford,Illinois,USA,2020-05-08 00:00:00,39.0026980674062,-87.7595511477602,10,0,0,10
17035,Cumberland,Illinois,USA,2020-05-08 00:00:00,39.2733468255191,-88.2401981661555,4,0,0,4
17037,DeKalb,Illinois,USA,2020-05-08 00:00:00,41.8935293191289,-88.7703159231543,149,1,31,117
17039,De Witt,Illinois,USA,2020-05-08 00:00:00,40.1746293382091,-88.9040887048693,3,0,1,2
17041,Douglas,Illinois,USA,2020-05-08 00:00:00,39.7694547721454,-88.2173347046119,20,0,0,20
17043,DuPage,Illinois,USA,2020-05-08 00:00:00,41.8519557670645,-88.0855946495868,4213,228,100,3885
17049,Effingham,Illinois,USA,2020-05-08 00:00:00,39.0597819406611,-88.5898533622182,5,1,0,4
17051,Fayette,Illinois,USA,2020-05-08 00:00:00,39.0001785651632,-89.024120232092,17,2,0,15
17053,Ford,Illinois,USA,2020-05-08 00:00:00,40.5971651740481,-88.2232738464991,12,1,0,11
17055,Franklin,Illinois,USA,2020-05-08 00:00:00,37.9922926916124,-88.92416550234,10,0,0,10
17057,Fulton,Illinois,USA,2020-05-08 00:00:00,40.4727799619253,-90.2074818824629,3,0,0,3
17059,Gallatin,Illinois,USA,2020-05-08 00:00:00,37.7627564124405,-88.2304657379868,2,0,0,2
17061,Greene,Illinois,USA,2020-05-08 00:00:00,39.3561681628831,-90.3904985091571,3,0,0,3
17063,Grundy,Illinois,USA,2020-05-08 00:00:00,41.2851032069174,-88.4184956523871,50,0,0,50
17065,Hamilton,Illinois,USA,2020-05-08 00:00:00,38.0815539776378,-88.5390962907191,2,0,0,2
17067,Hancock,Illinois,USA,2020-05-08 00:00:00,40.4037747348092,-91.1646955495566,10,0,0,10
17069,Hardin,Illinois,USA,2020-05-08 00:00:00,37.5181798892164,-88.2667801291013,1,0,0,1
17071,Henderson,Illinois,USA,2020-05-08 00:00:00,40.8181139287222,-90.9251086579914,5,0,0,5
17073,Henry,Illinois,USA,2020-05-08 00:00:00,41.353136497641,-90.1314083141746,55,0,0,55
17075,Iroquois,Illinois,USA,2020-05-08 00:00:00,40.7472371325887,-87.824297901244,77,1,0,76
17077,Jackson,Illinois,USA,2020-05-08 00:00:00,37.7851065199133,-89.3820759402547,157,10,14,133
17079,Jasper,Illinois,USA,2020-05-08 00:00:00,39.0100394517371,-88.1538411274982,46,5,0,41
17081,Jefferson,Illinois,USA,2020-05-08 00:00:00,38.3005234344268,-88.924009156508,88,15,0,73
17083,Jersey,Illinois,USA,2020-05-08 00:00:00,39.0855054887497,-90.3565282984681,16,1,5,10
17085,Jo Daviess,Illinois,USA,2020-05-08 00:00:00,42.3658182043361,-90.2125952058594,14,0,0,14
17087,Johnson,Illinois,USA,2020-05-08 00:00:00,37.4596486226498,-88.8809285274694,4,0,0,4
17089,Kane,Illinois,USA,2020-05-08 00:00:00,41.9388566678571,-88.4286377037738,2498,77,0,2421
17091,Kankakee,Illinois,USA,2020-05-08 00:00:00,41.137718472409,-87.8618317845576,428,28,59,341
17093,Kendall,Illinois,USA,2020-05-08 00:00:00,41.590577647002,-88.4287883538681,363,10,76,277
17095,Knox,Illinois,USA,2020-05-08 00:00:00,40.9318279820661,-90.2132382620537,63,0,0,63
17097,Lake,Illinois,USA,2020-05-08 00:00:00,42.3253227219636,-87.6311845438407,4762,165,0,4597
17099,LaSalle,Illinois,USA,2020-05-08 00:00:00,41.3440027805284,-88.8859379255757,91,2,8,81
17101,Lawrence,Illinois,USA,2020-05-08 00:00:00,38.7199480155879,-87.7267298382857,3,0,0,3
17103,Lee,Illinois,USA,2020-05-08 00:00:00,41.746105443738,-89.3003092503966,51,0,3,48
17105,Livingston,Illinois,USA,2020-05-08 00:00:00,40.8915578870868,-88.5577158077883,24,1,0,23
17107,Logan,Illinois,USA,2020-05-08 00:00:00,40.124536351682,-89.3675209057207,7,0,2,5
17115,Macon,Illinois,USA,2020-05-08 00:00:00,39.8600027880768,-88.9615519315549,133,14,0,119
17117,Macoupin,Illinois,USA,2020-05-08 00:00:00,39.2610229552353,-89.9244550509663,39,1,28,10
17119,Madison,Illinois,USA,2020-05-08 00:00:00,38.8297122608197,-89.9049984300098,396,28,116,252
17121,Marion,Illinois,USA,2020-05-08 00:00:00,38.6495781116696,-88.9189811152543,40,0,0,40
17123,Marshall,Illinois,USA,2020-05-08 00:00:00,41.0331711391173,-89.3447914373653,4,0,0,4
17125,Mason,Illinois,USA,2020-05-08 00:00:00,40.2396222296675,-89.9168137954994,15,0,0,15
17127,Massac,Illinois,USA,2020-05-08 00:00:00,37.2190501993827,-88.707739700702,5,0,2,3
17109,McDonough,Illinois,USA,2020-05-08 00:00:00,40.4562312431693,-90.6778776623991,46,2,0,44
17111,McHenry,Illinois,USA,2020-05-08 00:00:00,42.3243507875731,-88.4524199255235,857,44,0,813
17113,McLean,Illinois,USA,2020-05-08 00:00:00,40.4908916186805,-88.8473242780278,110,3,73,34
17129,Menard,Illinois,USA,2020-05-08 00:00:00,40.0274157083879,-89.80217764329,17,0,0,17
17131,Mercer,Illinois,USA,2020-05-08 00:00:00,41.2053450175016,-90.7413938886714,11,0,0,11
17133,Monroe,Illinois,USA,2020-05-08 00:00:00,38.2785594463118,-90.1772845526203,77,11,0,66
17135,Montgomery,Illinois,USA,2020-05-08 00:00:00,39.2310459340727,-89.478848552339,33,1,0,32
17137,Morgan,Illinois,USA,2020-05-08 00:00:00,39.7155561424911,-90.2015195407793,27,1,0,26
17139,Moultrie,Illinois,USA,2020-05-08 00:00:00,39.6414721595065,-88.6192951937505,6,0,0,6
17141,Ogle,Illinois,USA,2020-05-08 00:00:00,42.0425663560856,-89.3207266557957,139,1,0,138
,Out of state,Illinois,USA,2020-05-08 00:00:00,,,73,4,0,69
17143,Peoria,Illinois,USA,2020-05-08 00:00:00,40.788063593624,-89.7599800409172,130,5,13,112
17145,Perry,Illinois,USA,2020-05-08 00:00:00,38.0837367979524,-89.3670210807796,36,0,0,36
17147,Piatt,Illinois,USA,2020-05-08 00:00:00,40.0103527450663,-88.5910866501972,7,0,2,5
17149,Pike,Illinois,USA,2020-05-08 00:00:00,39.6224801785228,-90.8863042728437,1,0,0,1
17153,Pulaski,Illinois,USA,2020-05-08 00:00:00,37.2229804279557,-89.126595245266,24,0,0,24
17157,Randolph,Illinois,USA,2020-05-08 00:00:00,38.0520825053825,-89.8251764020122,206,2,35,169
17159,Richland,Illinois,USA,2020-05-08 00:00:00,38.7123597006038,-88.0851335477147,3,0,0,3
17161,Rock Island,Illinois,USA,2020-05-08 00:00:00,41.4673285686716,-90.567412603149,477,15,0,462
17165,Saline,Illinois,USA,2020-05-08 00:00:00,37.7531363893746,-88.5407417954195,5,0,1,4
17167,Sangamon,Illinois,USA,2020-05-08 00:00:00,39.7581742367659,-89.6589101834976,237,15,31,191
17169,Schuyler,Illinois,USA,2020-05-08 00:00:00,40.1580424714696,-90.615095213699,3,0,0,3
17173,Shelby,Illinois,USA,2020-05-08 00:00:00,39.3911561848362,-88.805504987887,10,1,0,9
17175,Stark,Illinois,USA,2020-05-08 00:00:00,41.0933920307621,-89.7974473885462,1,0,0,1
17163,St. Clair,Illinois,USA,2020-05-08 00:00:00,38.4703210347961,-89.928399021685,623,44,0,579
17177,Stephenson,Illinois,USA,2020-05-08 00:00:00,42.3518291045034,-89.6622542939008,78,0,5,73
17179,Tazewell,Illinois,USA,2020-05-08 00:00:00,40.5075329901512,-89.513403534793,54,3,0,51
17181,Union,Illinois,USA,2020-05-08 00:00:00,37.4712716191156,-89.2551274030071,52,1,0,51
,unknown,Illinois,USA,2020-05-08 00:00:00,,,378,3,0,375
17183,Vermilion,Illinois,USA,2020-05-08 00:00:00,40.1834016210332,-87.732815213989,23,1,0,22
17185,Wabash,Illinois,USA,2020-05-08 00:00:00,38.4461016023359,-87.8442748908453,2,0,0,2
17187,Warren,Illinois,USA,2020-05-08 00:00:00,40.8488341603229,-90.6150375695005,92,0,0,92
17189,Washington,Illinois,USA,2020-05-08 00:00:00,38.352182811764,-89.4104744564294,14,0,2,12
17191,Wayne,Illinois,USA,2020-05-08 00:00:00,38.4295611650897,-88.4256137919176,2,0,0,2
17193,White,Illinois,USA,2020-05-08 00:00:00,38.0874875679103,-88.1795748822848,2,0,0,2
17195,Whiteside,Illinois,USA,2020-05-08 00:00:00,41.7562548802964,-89.914102991806,99,6,10,83
17197,Will,Illinois,USA,2020-05-08 00:00:00,41.4450504457229,-87.9786458597229,3434,194,0,3240
17199,Williamson,Illinois,USA,2020-05-08 00:00:00,37.7302529228166,-88.9299244512032,42,0,6,36
17201,Winnebago,Illinois,USA,2020-05-08 00:00:00,42.3362603020884,-89.1608658487722,759,21,0,738
17203,Woodford,Illinois,USA,2020-05-08 00:00:00,40.7882358797883,-89.2111061648262,15,1,0,14
18001,Adams,Indiana,USA,2020-05-08 00:00:00,40.7456599313335,-84.9366547188895,8,1,0,7
18003,Allen,Indiana,USA,2020-05-08 00:00:00,41.0908708810728,-85.0665620401719,743,58,0,685
18005,Bartholomew,Indiana,USA,2020-05-08 00:00:00,39.2059705720706,-85.8976029731582,316,21,0,295
18007,Benton,Indiana,USA,2020-05-08 00:00:00,40.6062584629788,-87.3109060180137,12,0,0,12
18009,Blackford,Indiana,USA,2020-05-08 00:00:00,40.4736005609896,-85.3248199236452,12,1,0,11
18011,Boone,Indiana,USA,2020-05-08 00:00:00,40.0508013831757,-86.4686962098423,211,27,0,184
18013,Brown,Indiana,USA,2020-05-08 00:00:00,39.1962111615649,-86.2273748047997,25,1,0,24
18015,Carroll,Indiana,USA,2020-05-08 00:00:00,40.5828585610496,-86.5634841334203,66,1,0,65
18017,Cass,Indiana,USA,2020-05-08 00:00:00,40.7614914969559,-86.3459465588995,1469,2,0,1467
18019,Clark,Indiana,USA,2020-05-08 00:00:00,38.4771945500357,-85.7072716296518,355,23,0,332
18021,Clay,Indiana,USA,2020-05-08 00:00:00,39.3927278538193,-87.1157584406165,23,1,0,22
18023,Clinton,Indiana,USA,2020-05-08 00:00:00,40.3016905964396,-86.4751595355035,75,1,0,74
18025,Crawford,Indiana,USA,2020-05-08 00:00:00,38.2924145670038,-86.4517083941395,20,0,0,20
18027,Daviess,Indiana,USA,2020-05-08 00:00:00,38.7024099656635,-87.0720684602314,54,15,0,39
18029,Dearborn,Indiana,USA,2020-05-08 00:00:00,39.1451918976174,-84.9732585320435,145,13,0,132
18031,Decatur,Indiana,USA,2020-05-08 00:00:00,39.3069999342925,-85.5011430488423,208,28,0,180
18033,DeKalb,Indiana,USA,2020-05-08 00:00:00,41.3975800161261,-84.9990842820236,23,1,0,22
18035,Delaware,Indiana,USA,2020-05-08 00:00:00,40.2275253190724,-85.3968993017187,213,15,0,198
18037,Dubois,Indiana,USA,2020-05-08 00:00:00,38.3642764331701,-86.8798021177476,35,0,0,35
18039,Elkhart,Indiana,USA,2020-05-08 00:00:00,41.5973844823095,-85.8587552784662,387,16,0,371
18041,Fayette,Indiana,USA,2020-05-08 00:00:00,39.6400558465496,-85.178724960821,34,4,0,30
18043,Floyd,Indiana,USA,2020-05-08 00:00:00,38.3189286396643,-85.9068307178283,224,28,0,196
18045,Fountain,Indiana,USA,2020-05-08 00:00:00,40.1208707644701,-87.2419916981694,14,2,0,12
18047,Franklin,Indiana,USA,2020-05-08 00:00:00,39.4148645226538,-85.0602848846525,101,7,53,41
18049,Fulton,Indiana,USA,2020-05-08 00:00:00,41.046963298926,-86.2635836849423,34,1,0,33
18051,Gibson,Indiana,USA,2020-05-08 00:00:00,38.3118253710402,-87.5845943679773,7,0,0,7
18053,Grant,Indiana,USA,2020-05-08 00:00:00,40.5158445870746,-85.6547259036367,151,13,0,138
18055,Greene,Indiana,USA,2020-05-08 00:00:00,39.0363277254334,-86.9620463650016,132,9,0,123
18057,Hamilton,Indiana,USA,2020-05-08 00:00:00,40.0724894749734,-86.0520142517151,894,78,0,816
18059,Hancock,Indiana,USA,2020-05-08 00:00:00,39.8235499831243,-85.7732376367671,241,16,0,225
18061,Harrison,Indiana,USA,2020-05-08 00:00:00,38.1951228784,-86.1113109451774,150,11,0,139
18063,Hendricks,Indiana,USA,2020-05-08 00:00:00,39.7695173710006,-86.5099758786081,893,49,0,844
18065,Henry,Indiana,USA,2020-05-08 00:00:00,39.9310397360685,-85.3964353741962,59,2,0,57
18067,Howard,Indiana,USA,2020-05-08 00:00:00,40.4835856225248,-86.1169307298404,225,9,0,216
18069,Huntington,Indiana,USA,2020-05-08 00:00:00,40.8292399574626,-85.4881722777162,12,2,0,10
18071,Jackson,Indiana,USA,2020-05-08 00:00:00,38.9064174883559,-86.0375413468075,219,1,0,218
18073,Jasper,Indiana,USA,2020-05-08 00:00:00,41.0229983045553,-87.1161212418817,37,1,0,36
18075,Jay,Indiana,USA,2020-05-08 00:00:00,40.4379183725251,-85.0056353252309,18,0,0,18
18077,Jefferson,Indiana,USA,2020-05-08 00:00:00,38.7858226615139,-85.4385728826396,32,0,0,32
18079,Jennings,Indiana,USA,2020-05-08 00:00:00,38.9969300555227,-85.6280646000644,89,3,0,86
18081,Johnson,Indiana,USA,2020-05-08 00:00:00,39.4899707455581,-86.1016367881227,754,77,3,674
18083,Knox,Indiana,USA,2020-05-08 00:00:00,38.6890898845763,-87.4180084675185,20,0,0,20
18085,Kosciusko,Indiana,USA,2020-05-08 00:00:00,41.2440973380013,-85.8607176827986,39,1,0,38
18087,LaGrange,Indiana,USA,2020-05-08 00:00:00,41.6426062357626,-85.4264979093332,36,2,0,34
18089,Lake,Indiana,USA,2020-05-08 00:00:00,41.4722121301784,-87.3763856000419,2288,111,0,2177
18091,LaPorte,Indiana,USA,2020-05-08 00:00:00,41.54902155721,-86.7423662187146,303,10,0,293
18093,Lawrence,Indiana,USA,2020-05-08 00:00:00,38.8411628915135,-86.4834511309161,112,15,0,97
18095,Madison,Indiana,USA,2020-05-08 00:00:00,40.1616556186766,-85.7193451682296,474,56,0,418
18097,Marion,Indiana,USA,2020-05-08 00:00:00,39.7817096804655,-86.1384716708535,6914,398,0,6516
18099,Marshall,Indiana,USA,2020-05-08 00:00:00,41.3248489607536,-86.2617612923416,31,1,0,30
18101,Martin,Indiana,USA,2020-05-08 00:00:00,38.7080111868845,-86.8030654715557,7,0,0,7
18103,Miami,Indiana,USA,2020-05-08 00:00:00,40.7695040098279,-86.0450230742913,121,1,0,120
18105,Monroe,Indiana,USA,2020-05-08 00:00:00,39.1609175597811,-86.5231372075804,137,9,0,128
18107,Montgomery,Indiana,USA,2020-05-08 00:00:00,40.0403785235389,-86.8932997961956,111,2,0,109
18109,Morgan,Indiana,USA,2020-05-08 00:00:00,39.4815483457805,-86.4462121420817,183,8,0,175
18111,Newton,Indiana,USA,2020-05-08 00:00:00,40.9558477435745,-87.3975365942557,61,8,0,53
18113,Noble,Indiana,USA,2020-05-08 00:00:00,41.3985995057319,-85.417466732181,124,14,0,110
18115,Ohio,Indiana,USA,2020-05-08 00:00:00,38.9500945902012,-84.9650431208644,7,0,0,7
18117,Orange,Indiana,USA,2020-05-08 00:00:00,38.5417788856704,-86.4950692821224,106,14,0,92
18119,Owen,Indiana,USA,2020-05-08 00:00:00,39.3128100482593,-86.8376542268401,24,1,0,23
18121,Parke,Indiana,USA,2020-05-08 00:00:00,39.7736200492103,-87.2063672164146,13,0,0,13
18123,Perry,Indiana,USA,2020-05-08 00:00:00,38.07964913518,-86.6380317986218,13,0,0,13
18125,Pike,Indiana,USA,2020-05-08 00:00:00,38.3987832635269,-87.2321643219019,2,0,0,2
18127,Porter,Indiana,USA,2020-05-08 00:00:00,41.5088382942921,-87.0733191355687,294,7,64,223
18129,Posey,Indiana,USA,2020-05-08 00:00:00,38.021891551821,-87.8684711825738,15,0,0,15
18131,Pulaski,Indiana,USA,2020-05-08 00:00:00,41.0418321080512,-86.698779262381,33,0,0,33
18133,Putnam,Indiana,USA,2020-05-08 00:00:00,39.6662617906674,-86.8449997676441,79,5,0,74
18135,Randolph,Indiana,USA,2020-05-08 00:00:00,40.1576395642374,-85.0113104079756,18,2,0,16
18137,Ripley,Indiana,USA,2020-05-08 00:00:00,39.10345466592,-85.2623863739926,98,6,0,92
18139,Rush,Indiana,USA,2020-05-08 00:00:00,39.6199484364248,-85.4657611777143,37,2,0,35
18143,Scott,Indiana,USA,2020-05-08 00:00:00,38.6850699522825,-85.7474680991925,63,2,0,61
18145,Shelby,Indiana,USA,2020-05-08 00:00:00,39.5236921943833,-85.7917003981362,243,15,0,228
18147,Spencer,Indiana,USA,2020-05-08 00:00:00,38.0140589617265,-87.0077059130648,6,1,0,5
18149,Starke,Indiana,USA,2020-05-08 00:00:00,41.2809264377042,-86.6476485660744,19,2,0,17
18151,Steuben,Indiana,USA,2020-05-08 00:00:00,41.643867877885,-85.0007648540175,61,1,0,60
18141,St. Joseph,Indiana,USA,2020-05-08 00:00:00,41.6167180091714,-86.2898576944816,730,24,0,706
18153,Sullivan,Indiana,USA,2020-05-08 00:00:00,39.0888346851244,-87.4146903866477,18,0,0,18
18155,Switzerland,Indiana,USA,2020-05-08 00:00:00,38.8261607682354,-85.0369979159278,15,0,0,15
18157,Tippecanoe,Indiana,USA,2020-05-08 00:00:00,40.3886187334077,-86.8940974128112,202,2,0,200
18159,Tipton,Indiana,USA,2020-05-08 00:00:00,40.3113452380511,-86.0518589748207,20,1,0,19
18161,Union,Indiana,USA,2020-05-08 00:00:00,39.6255458453095,-84.9251420286424,8,0,0,8
,unknown,Indiana,USA,2020-05-08 00:00:00,,,128,119,1384,-1375
18163,Vanderburgh,Indiana,USA,2020-05-08 00:00:00,38.0249578597333,-87.5857849635395,169,2,55,112
18165,Vermillion,Indiana,USA,2020-05-08 00:00:00,39.8538114573868,-87.4639782840983,7,0,0,7
18167,Vigo,Indiana,USA,2020-05-08 00:00:00,39.4306386000653,-87.3899644539332,75,6,0,69
18169,Wabash,Indiana,USA,2020-05-08 00:00:00,40.845693005788,-85.7940056738606,64,2,0,62
18171,Warren,Indiana,USA,2020-05-08 00:00:00,40.3469033296584,-87.3533144839354,12,1,0,11
18173,Warrick,Indiana,USA,2020-05-08 00:00:00,38.0921662434174,-87.2720537446662,116,19,0,97
18175,Washington,Indiana,USA,2020-05-08 00:00:00,38.599984173524,-86.1053059022654,45,1,0,44
18177,Wayne,Indiana,USA,2020-05-08 00:00:00,39.8644164614474,-85.0098761362691,49,3,0,46
18179,Wells,Indiana,USA,2020-05-08 00:00:00,40.7291866469068,-85.2212198575698,9,0,0,9
18181,White,Indiana,USA,2020-05-08 00:00:00,40.7497715931692,-86.8654694015716,130,1,0,129
18183,Whitley,Indiana,USA,2020-05-08 00:00:00,41.1393753356298,-85.5051179350214,22,1,0,21
19001,Adair,Iowa,USA,2020-05-08 00:00:00,41.3307464286385,-94.4709413441945,3,0,0,3
19005,Allamakee,Iowa,USA,2020-05-08 00:00:00,43.2842837870669,-91.3780922861796,99,4,0,95
19007,Appanoose,Iowa,USA,2020-05-08 00:00:00,40.7431634699893,-92.8686104166536,6,3,0,3
19009,Audubon,Iowa,USA,2020-05-08 00:00:00,41.6845893284892,-94.9058221959791,8,0,0,8
19011,Benton,Iowa,USA,2020-05-08 00:00:00,42.0801747510335,-92.0657317334181,35,1,0,34
19013,Black Hawk,Iowa,USA,2020-05-08 00:00:00,42.4700957440445,-92.3088197079,1450,19,0,1431
19015,Boone,Iowa,USA,2020-05-08 00:00:00,42.036502633479,-93.9316370876745,33,0,0,33
19017,Bremer,Iowa,USA,2020-05-08 00:00:00,42.7745872457601,-92.3180548338649,56,5,0,51
19019,Buchanan,Iowa,USA,2020-05-08 00:00:00,42.470783793139,-91.8378421489966,22,0,0,22
19021,Buena Vista,Iowa,USA,2020-05-08 00:00:00,42.7354936211859,-95.1511488586357,18,0,0,18
19023,Butler,Iowa,USA,2020-05-08 00:00:00,42.7315661358979,-92.7901934384128,11,0,0,11
19025,Calhoun,Iowa,USA,2020-05-08 00:00:00,42.3851848525597,-94.6404136046963,1,0,0,1
19027,Carroll,Iowa,USA,2020-05-08 00:00:00,42.0362382228832,-94.8605592806764,5,0,0,5
19029,Cass,Iowa,USA,2020-05-08 00:00:00,41.3314876089914,-94.9278266277412,1,0,0,1
19031,Cedar,Iowa,USA,2020-05-08 00:00:00,41.7723266607048,-91.1324230468345,39,1,0,38
19033,Cerro Gordo,Iowa,USA,2020-05-08 00:00:00,43.0815577124991,-93.2608184346489,14,0,0,14
19035,Cherokee,Iowa,USA,2020-05-08 00:00:00,42.7356225782879,-95.6238053959263,4,0,0,4
19037,Chickasaw,Iowa,USA,2020-05-08 00:00:00,43.0600413474475,-92.3176637460763,6,0,0,6
19039,Clarke,Iowa,USA,2020-05-08 00:00:00,41.0290322944025,-93.7851578386378,4,0,0,4
19041,Clay,Iowa,USA,2020-05-08 00:00:00,43.0825803990944,-95.1509194223791,8,0,0,8
19043,Clayton,Iowa,USA,2020-05-08 00:00:00,42.8447493087724,-91.3414327746686,19,2,0,17
19045,Clinton,Iowa,USA,2020-05-08 00:00:00,41.8980358084322,-90.531972429081,53,1,0,52
19047,Crawford,Iowa,USA,2020-05-08 00:00:00,42.037212460982,-95.3819677478241,124,1,0,123
19049,Dallas,Iowa,USA,2020-05-08 00:00:00,41.6848582046082,-94.0397619264977,644,4,0,640
19051,Davis,Iowa,USA,2020-05-08 00:00:00,40.7476890807362,-92.4097172921867,7,0,0,7
19055,Delaware,Iowa,USA,2020-05-08 00:00:00,42.4712208978765,-91.3673414109567,8,1,0,7
19057,Des Moines,Iowa,USA,2020-05-08 00:00:00,40.9231743916063,-91.1814829890074,29,1,0,28
19059,Dickinson,Iowa,USA,2020-05-08 00:00:00,43.377984763128,-95.1508300608426,6,0,0,6
19061,Dubuque,Iowa,USA,2020-05-08 00:00:00,42.4688224326792,-90.8825218503692,175,5,0,170
19065,Fayette,Iowa,USA,2020-05-08 00:00:00,42.8625961548201,-91.8443243325671,24,0,0,24
19067,Floyd,Iowa,USA,2020-05-08 00:00:00,43.0599208476216,-92.7890033704119,2,0,0,2
19069,Franklin,Iowa,USA,2020-05-08 00:00:00,42.7325458524499,-93.2624729912836,7,0,0,7
19073,Greene,Iowa,USA,2020-05-08 00:00:00,42.0362403728988,-94.3968169904731,13,0,0,13
19075,Grundy,Iowa,USA,2020-05-08 00:00:00,42.4018650654895,-92.7914177407485,16,0,0,16
19077,Guthrie,Iowa,USA,2020-05-08 00:00:00,41.6837548102224,-94.5010550106727,32,0,0,32
19079,Hamilton,Iowa,USA,2020-05-08 00:00:00,42.3837713170198,-93.7068096741392,9,0,0,9
19081,Hancock,Iowa,USA,2020-05-08 00:00:00,43.0818860730696,-93.7342722978014,3,0,0,3
19083,Hardin,Iowa,USA,2020-05-08 00:00:00,42.3838803184931,-93.2404024994393,11,0,0,11
19085,Harrison,Iowa,USA,2020-05-08 00:00:00,41.6828527454534,-95.8169208875506,17,0,0,17
19087,Henry,Iowa,USA,2020-05-08 00:00:00,40.9879710087924,-91.5445322832253,42,1,0,41
19089,Howard,Iowa,USA,2020-05-08 00:00:00,43.3567673363736,-92.3171989038787,13,0,0,13
19091,Humboldt,Iowa,USA,2020-05-08 00:00:00,42.7764677574018,-94.2071830507492,6,0,0,6
19095,Iowa,Iowa,USA,2020-05-08 00:00:00,41.6863234291946,-92.0655240140615,26,0,0,26
19097,Jackson,Iowa,USA,2020-05-08 00:00:00,42.1717425856693,-90.5742293965064,7,0,0,7
19099,Jasper,Iowa,USA,2020-05-08 00:00:00,41.6860388529243,-93.0537645397975,229,5,0,224
19101,Jefferson,Iowa,USA,2020-05-08 00:00:00,41.0317620677679,-91.9488728782238,7,0,0,7
19103,Johnson,Iowa,USA,2020-05-08 00:00:00,41.6715248584397,-91.5881018851801,543,6,0,537
19105,Jones,Iowa,USA,2020-05-08 00:00:00,42.1212370656892,-91.1314654209538,30,0,0,30
19107,Keokuk,Iowa,USA,2020-05-08 00:00:00,41.3364654752818,-92.1786423154861,6,0,0,6
19109,Kossuth,Iowa,USA,2020-05-08 00:00:00,43.204130029813,-94.2067199305559,2,0,0,2
19111,Lee,Iowa,USA,2020-05-08 00:00:00,40.6419821705394,-91.4792643967377,17,0,0,17
19113,Linn,Iowa,USA,2020-05-08 00:00:00,42.0789535270831,-91.5990228598096,805,56,0,749
19115,Louisa,Iowa,USA,2020-05-08 00:00:00,41.2185070628298,-91.2596183011614,280,2,0,278
19119,Lyon,Iowa,USA,2020-05-08 00:00:00,43.3804969624609,-96.2102923903347,15,0,0,15
19121,Madison,Iowa,USA,2020-05-08 00:00:00,41.3307142216737,-94.0155619459066,10,1,0,9
19123,Mahaska,Iowa,USA,2020-05-08 00:00:00,41.3352034593846,-92.6409093578323,20,1,0,19
19125,Marion,Iowa,USA,2020-05-08 00:00:00,41.3344518776202,-93.0994371546228,12,0,0,12
19127,Marshall,Iowa,USA,2020-05-08 00:00:00,42.0358492263007,-92.9987713463233,686,3,0,683
19129,Mills,Iowa,USA,2020-05-08 00:00:00,41.0334522633602,-95.6213267179769,5,0,0,5
19131,Mitchell,Iowa,USA,2020-05-08 00:00:00,43.3564123716687,-92.7890314514648,3,0,0,3
19133,Monona,Iowa,USA,2020-05-08 00:00:00,42.0516662494141,-95.9599234781521,11,0,0,11
19135,Monroe,Iowa,USA,2020-05-08 00:00:00,41.0297829981328,-92.8689876815804,2,0,0,2
19137,Montgomery,Iowa,USA,2020-05-08 00:00:00,41.0301399960831,-95.15637577158,2,0,0,2
19139,Muscatine,Iowa,USA,2020-05-08 00:00:00,41.4839220534493,-91.1127562492218,441,17,0,424
,Obrien,Iowa,USA,2020-05-08 00:00:00,,,13,0,0,13
19143,Osceola,Iowa,USA,2020-05-08 00:00:00,43.3785703545778,-95.6236852015492,17,0,0,17
19145,Page,Iowa,USA,2020-05-08 00:00:00,40.7391440171903,-95.1501748646424,9,0,0,9
19149,Plymouth,Iowa,USA,2020-05-08 00:00:00,42.7378473183477,-96.2140273941453,44,0,0,44
19151,Pocahontas,Iowa,USA,2020-05-08 00:00:00,42.7341351104706,-94.6787466122153,3,0,0,3
19153,Polk,Iowa,USA,2020-05-08 00:00:00,41.6855048252362,-93.5735335401348,2053,54,0,1999
19155,Pottawattamie,Iowa,USA,2020-05-08 00:00:00,41.3366123481711,-95.5423930769722,71,2,0,69
19157,Poweshiek,Iowa,USA,2020-05-08 00:00:00,41.686442192837,-92.5314683969855,78,5,0,73
19161,Sac,Iowa,USA,2020-05-08 00:00:00,42.3862603643316,-95.1053945569406,2,0,0,2
19163,Scott,Iowa,USA,2020-05-08 00:00:00,41.6370978318554,-90.623242803359,274,7,0,267
19165,Shelby,Iowa,USA,2020-05-08 00:00:00,41.6850925933668,-95.3102113400457,13,0,0,13
19167,Sioux,Iowa,USA,2020-05-08 00:00:00,43.0826173770038,-96.1778828447842,31,0,0,31
19169,Story,Iowa,USA,2020-05-08 00:00:00,42.0362414924,-93.4650447653805,52,1,0,51
19171,Tama,Iowa,USA,2020-05-08 00:00:00,42.0798117535801,-92.5325425885937,321,11,0,310
19173,Taylor,Iowa,USA,2020-05-08 00:00:00,40.737432360637,-94.6964147622718,1,0,0,1
19175,Union,Iowa,USA,2020-05-08 00:00:00,41.0277303995266,-94.2423791547129,1,0,0,1
,unknown,Iowa,USA,2020-05-08 00:00:00,,,124,6,4263,-4145
19177,Van Buren,Iowa,USA,2020-05-08 00:00:00,40.7532343253428,-91.9499782974015,8,0,0,8
19179,Wapello,Iowa,USA,2020-05-08 00:00:00,41.0305845372762,-92.4094498846212,165,0,0,165
19181,Warren,Iowa,USA,2020-05-08 00:00:00,41.3343734610495,-93.5613593646528,35,0,0,35
19183,Washington,Iowa,USA,2020-05-08 00:00:00,41.3356001857321,-91.7178701958823,154,7,0,147
19185,Wayne,Iowa,USA,2020-05-08 00:00:00,40.7394701917828,-93.3273638708161,1,0,0,1
19187,Webster,Iowa,USA,2020-05-08 00:00:00,42.4279491680729,-94.1817743674804,8,0,0,8
19189,Winnebago,Iowa,USA,2020-05-08 00:00:00,43.3775677756001,-93.73419547188,3,0,0,3
19191,Winneshiek,Iowa,USA,2020-05-08 00:00:00,43.290678828384,-91.843703605143,18,0,0,18
19193,Woodbury,Iowa,USA,2020-05-08 00:00:00,42.3897291621181,-96.0447949019342,1429,4,3,1422
19195,Worth,Iowa,USA,2020-05-08 00:00:00,43.3773984485017,-93.2608475496565,1,0,0,1
19197,Wright,Iowa,USA,2020-05-08 00:00:00,42.7331189883751,-93.7351436616453,5,0,0,5
20005,Atchison,Kansas,USA,2020-05-08 00:00:00,39.5317400032724,-95.3134446486021,12,0,8,4
20007,Barber,Kansas,USA,2020-05-08 00:00:00,37.2288385525795,-98.684790626008,1,0,0,1
20009,Barton,Kansas,USA,2020-05-08 00:00:00,38.4789639678883,-98.7564642929609,12,1,0,11
20011,Bourbon,Kansas,USA,2020-05-08 00:00:00,37.8552256175245,-94.8492968396418,6,1,5,0
20013,Brown,Kansas,USA,2020-05-08 00:00:00,39.8264989182667,-95.5642196556598,1,0,0,1
20015,Butler,Kansas,USA,2020-05-08 00:00:00,37.7812707516716,-96.8390654617322,14,0,13,1
20017,Chase,Kansas,USA,2020-05-08 00:00:00,38.3020458533245,-96.593928638024,3,0,3,0
20019,Chautauqua,Kansas,USA,2020-05-08 00:00:00,37.1500572155018,-96.2453782628083,4,0,0,4
20021,Cherokee,Kansas,USA,2020-05-08 00:00:00,37.1693060627843,-94.8462689731185,8,0,8,0
20023,Cheyenne,Kansas,USA,2020-05-08 00:00:00,39.7858693358925,-101.731104218354,2,0,0,2
20025,Clark,Kansas,USA,2020-05-08 00:00:00,37.2355230436509,-99.820307691828,17,0,0,17
20027,Clay,Kansas,USA,2020-05-08 00:00:00,39.349716418563,-97.1651722306606,5,1,1,3
20029,Cloud,Kansas,USA,2020-05-08 00:00:00,39.4802974374932,-97.6492819059412,4,0,3,1
20031,Coffey,Kansas,USA,2020-05-08 00:00:00,38.2368379380874,-95.734111781179,50,8,38,4
20035,Cowley,Kansas,USA,2020-05-08 00:00:00,37.2377526609457,-96.8374891768891,3,1,0,2
20037,Crawford,Kansas,USA,2020-05-08 00:00:00,37.5073151069356,-94.8518113710866,8,1,6,1
20041,Dickinson,Kansas,USA,2020-05-08 00:00:00,38.8665005828999,-97.1527027870086,2,0,1,1
20043,Doniphan,Kansas,USA,2020-05-08 00:00:00,39.7880806128697,-95.1467942431345,7,0,0,7
20045,Douglas,Kansas,USA,2020-05-08 00:00:00,38.8846594528361,-95.2926063048849,56,0,43,13
20047,Edwards,Kansas,USA,2020-05-08 00:00:00,37.887648789014,-99.3121708300598,4,0,0,4
20049,Elk,Kansas,USA,2020-05-08 00:00:00,37.4536881104888,-96.244086654485,1,0,0,1
20051,Ellis,Kansas,USA,2020-05-08 00:00:00,38.9147512529048,-99.3172316232346,8,0,8,0
20053,Ellsworth,Kansas,USA,2020-05-08 00:00:00,38.6966276739542,-98.2047302940477,1,0,0,1
20055,Finney,Kansas,USA,2020-05-08 00:00:00,38.0443048230536,-100.736990785568,791,3,8,780
20057,Ford,Kansas,USA,2020-05-08 00:00:00,37.6917036301478,-99.8879423783956,930,3,0,927
20059,Franklin,Kansas,USA,2020-05-08 00:00:00,38.5645174515365,-95.2859482396408,20,0,13,7
20061,Geary,Kansas,USA,2020-05-08 00:00:00,39.0023855083001,-96.7525021967857,13,0,9,4
20063,Gove,Kansas,USA,2020-05-08 00:00:00,38.9160955531413,-100.482904740452,1,0,0,1
20067,Grant,Kansas,USA,2020-05-08 00:00:00,37.5621932698241,-101.308021267712,8,0,0,8
20069,Gray,Kansas,USA,2020-05-08 00:00:00,37.7381978567341,-100.437862948471,6,0,0,6
20073,Greenwood,Kansas,USA,2020-05-08 00:00:00,37.8777875637604,-96.2326356698017,3,0,3,0
20075,Hamilton,Kansas,USA,2020-05-08 00:00:00,37.9991525438403,-101.791256464737,5,0,0,5
20077,Harper,Kansas,USA,2020-05-08 00:00:00,37.1916048670409,-98.0754955835128,1,0,0,1
20079,Harvey,Kansas,USA,2020-05-08 00:00:00,38.0432184801698,-97.4272714417082,9,0,6,3
20081,Haskell,Kansas,USA,2020-05-08 00:00:00,37.5622507407858,-100.871191807509,9,0,7,2
20085,Jackson,Kansas,USA,2020-05-08 00:00:00,39.416820118995,-95.7936636580264,2,0,1,1
20087,Jefferson,Kansas,USA,2020-05-08 00:00:00,39.2357647666952,-95.3834487329721,12,0,7,5
20089,Jewell,Kansas,USA,2020-05-08 00:00:00,39.7847320848607,-98.2183408741963,4,0,0,4
20091,Johnson,Kansas,USA,2020-05-08 00:00:00,38.883768512547,-94.8222610424764,553,45,0,508
20093,Kearny,Kansas,USA,2020-05-08 00:00:00,38.0001965300313,-101.319860809537,26,0,8,18
20097,Kiowa,Kansas,USA,2020-05-08 00:00:00,37.5582639151036,-99.2860476016729,2,0,0,2
20099,Labette,Kansas,USA,2020-05-08 00:00:00,37.1913273481371,-95.2975761420375,22,0,19,3
20103,Leavenworth,Kansas,USA,2020-05-08 00:00:00,39.1993345197509,-95.0379114409156,885,6,68,811
20107,Linn,Kansas,USA,2020-05-08 00:00:00,38.2122718972017,-94.842931975494,6,0,6,0
20111,Lyon,Kansas,USA,2020-05-08 00:00:00,38.4561871377106,-96.1526397501542,282,2,188,92
20115,Marion,Kansas,USA,2020-05-08 00:00:00,38.3588724364566,-97.096890358873,5,1,0,4
20113,McPherson,Kansas,USA,2020-05-08 00:00:00,38.3916666452777,-97.6480798696405,25,0,17,8
20119,Meade,Kansas,USA,2020-05-08 00:00:00,37.2381964094671,-100.366180260253,16,0,3,13
20121,Miami,Kansas,USA,2020-05-08 00:00:00,38.5635832260971,-94.8380569749561,5,0,5,0
20123,Mitchell,Kansas,USA,2020-05-08 00:00:00,39.3932659263047,-98.2093648176942,3,0,0,3
20125,Montgomery,Kansas,USA,2020-05-08 00:00:00,37.1925238003686,-95.7428780841429,20,2,9,9
20127,Morris,Kansas,USA,2020-05-08 00:00:00,38.687429249419,-96.6498496136391,3,0,3,0
20129,Morton,Kansas,USA,2020-05-08 00:00:00,37.1913959707274,-101.799252230661,3,0,0,3
20131,Nemaha,Kansas,USA,2020-05-08 00:00:00,39.7834476063313,-96.0141016624478,1,0,0,1
20133,Neosho,Kansas,USA,2020-05-08 00:00:00,37.5584854100238,-95.3067923128793,2,0,0,2
20137,Norton,Kansas,USA,2020-05-08 00:00:00,39.7843853292085,-99.9034768772106,2,0,0,2
20139,Osage,Kansas,USA,2020-05-08 00:00:00,38.6523289215481,-95.7269451410069,5,0,5,0
20141,Osborne,Kansas,USA,2020-05-08 00:00:00,39.3503339995814,-98.7679898039429,2,0,0,2
20143,Ottawa,Kansas,USA,2020-05-08 00:00:00,39.1325374950169,-97.6502157692044,4,0,3,1
20147,Phillips,Kansas,USA,2020-05-08 00:00:00,39.7845831124869,-99.3470221229772,1,0,0,1
20149,Pottawatomie,Kansas,USA,2020-05-08 00:00:00,39.3790027808564,-96.3423649942434,15,0,8,7
20151,Pratt,Kansas,USA,2020-05-08 00:00:00,37.6477353374052,-98.7395957092342,1,0,0,1
20155,Reno,Kansas,USA,2020-05-08 00:00:00,37.9529528516498,-98.0860066563637,41,0,34,7
20157,Republic,Kansas,USA,2020-05-08 00:00:00,39.8277963216197,-97.6506227727649,4,0,4,0
20159,Rice,Kansas,USA,2020-05-08 00:00:00,38.3471428738196,-98.2010299557531,3,0,0,3
20161,Riley,Kansas,USA,2020-05-08 00:00:00,39.296553201148,-96.7351769755133,56,0,36,20
20163,Rooks,Kansas,USA,2020-05-08 00:00:00,39.350228754255,-99.3250571176148,6,0,0,6
20169,Saline,Kansas,USA,2020-05-08 00:00:00,38.7838065024156,-97.6499306446394,21,2,0,19
20171,Scott,Kansas,USA,2020-05-08 00:00:00,38.4821693590307,-100.906858955897,2,0,0,2
20173,Sedgwick,Kansas,USA,2020-05-08 00:00:00,37.684761558884,-97.4609686790817,454,18,259,177
20175,Seward,Kansas,USA,2020-05-08 00:00:00,37.1933028033079,-100.85128724783,664,0,263,401
20177,Shawnee,Kansas,USA,2020-05-08 00:00:00,39.0415137637275,-95.7565342577293,140,5,97,38
20179,Sheridan,Kansas,USA,2020-05-08 00:00:00,39.3503577669302,-100.441832360661,2,0,0,2
20181,Sherman,Kansas,USA,2020-05-08 00:00:00,39.3514336871584,-101.719980700627,5,0,0,5
20183,Smith,Kansas,USA,2020-05-08 00:00:00,39.7851563589546,-98.7854727927051,2,0,0,2
20185,Stafford,Kansas,USA,2020-05-08 00:00:00,38.030998536805,-98.7174450153867,1,0,0,1
20187,Stanton,Kansas,USA,2020-05-08 00:00:00,37.5630613882308,-101.784183190538,7,0,5,2
20189,Stevens,Kansas,USA,2020-05-08 00:00:00,37.1923179508667,-101.312046957533,14,0,0,14
20191,Sumner,Kansas,USA,2020-05-08 00:00:00,37.2372753377107,-97.4765502093982,4,1,0,3
,unknown,Kansas,USA,2020-05-08 00:00:00,,,3,5,0,-2
20197,Wabaunsee,Kansas,USA,2020-05-08 00:00:00,38.9532912889436,-96.2050045391319,27,0,4,23
20201,Washington,Kansas,USA,2020-05-08 00:00:00,39.7842012908515,-97.0875435236627,1,0,0,1
20205,Wilson,Kansas,USA,2020-05-08 00:00:00,37.5592414880624,-95.7433888048397,1,0,0,1
20207,Woodson,Kansas,USA,2020-05-08 00:00:00,37.8866702060482,-95.7401677072273,6,0,5,1
20209,Wyandotte,Kansas,USA,2020-05-08 00:00:00,39.1146453373875,-94.7644784214525,942,64,185,693
21001,Adair,Kentucky,USA,2020-05-08 00:00:00,37.1041534525931,-85.2806497628965,84,13,0,71
21003,Allen,Kentucky,USA,2020-05-08 00:00:00,36.751316553372,-86.1904186693297,25,0,0,25
21005,Anderson,Kentucky,USA,2020-05-08 00:00:00,38.0039134140745,-84.9910045711043,9,1,0,8
21007,Ballard,Kentucky,USA,2020-05-08 00:00:00,37.0584319295026,-88.9993411295801,8,0,0,8
21009,Barren,Kentucky,USA,2020-05-08 00:00:00,36.9655811681263,-85.9336633247206,24,0,0,24
21011,Bath,Kentucky,USA,2020-05-08 00:00:00,38.1449736905904,-83.742667219987,4,1,0,3
21015,Boone,Kentucky,USA,2020-05-08 00:00:00,38.9698644779961,-84.7278481159809,197,4,0,193
21017,Bourbon,Kentucky,USA,2020-05-08 00:00:00,38.2067299514469,-84.2171399548865,8,1,0,7
21019,Boyd,Kentucky,USA,2020-05-08 00:00:00,38.3595724655312,-82.6877258112034,32,3,0,29
21021,Boyle,Kentucky,USA,2020-05-08 00:00:00,37.6243602285445,-84.8668203814616,16,0,0,16
21023,Bracken,Kentucky,USA,2020-05-08 00:00:00,38.6888129740231,-84.0901906654822,10,0,0,10
21025,Breathitt,Kentucky,USA,2020-05-08 00:00:00,37.521617139101,-83.3240853027256,2,0,0,2
21027,Breckinridge,Kentucky,USA,2020-05-08 00:00:00,37.7732676848037,-86.4292775360844,11,0,0,11
21029,Bullitt,Kentucky,USA,2020-05-08 00:00:00,37.9700757707093,-85.6958570326457,74,2,0,72
21031,Butler,Kentucky,USA,2020-05-08 00:00:00,37.2072808133028,-86.6817555600196,188,6,0,182
21033,Caldwell,Kentucky,USA,2020-05-08 00:00:00,37.1453332323421,-87.8679057735202,13,0,0,13
21035,Calloway,Kentucky,USA,2020-05-08 00:00:00,36.6211012796067,-88.2722011175074,35,1,0,34
21037,Campbell,Kentucky,USA,2020-05-08 00:00:00,38.9464767816095,-84.3796958205948,110,9,0,101
21039,Carlisle,Kentucky,USA,2020-05-08 00:00:00,36.8532163803472,-88.9710587867821,2,1,0,1
21041,Carroll,Kentucky,USA,2020-05-08 00:00:00,38.6678584122171,-85.123590031964,2,0,0,2
21043,Carter,Kentucky,USA,2020-05-08 00:00:00,38.3181728390292,-83.0495338272332,6,0,0,6
21045,Casey,Kentucky,USA,2020-05-08 00:00:00,37.322282448911,-84.9283681524073,1,0,0,1
21047,Christian,Kentucky,USA,2020-05-08 00:00:00,36.8941807353445,-87.4903805624684,92,3,0,89
21049,Clark,Kentucky,USA,2020-05-08 00:00:00,37.9708518682033,-84.1473994082046,21,0,0,21
21051,Clay,Kentucky,USA,2020-05-08 00:00:00,37.1596975588695,-83.7146626830167,1,0,0,1
21053,Clinton,Kentucky,USA,2020-05-08 00:00:00,36.727481625474,-85.1360135601809,3,0,0,3
21055,Crittenden,Kentucky,USA,2020-05-08 00:00:00,37.352715268333,-88.0972226536331,4,1,0,3
21057,Cumberland,Kentucky,USA,2020-05-08 00:00:00,36.7865296888433,-85.3884485912186,5,0,0,5
21059,Daviess,Kentucky,USA,2020-05-08 00:00:00,37.7317725079599,-87.0872269242204,258,4,39,215
21061,Edmonson,Kentucky,USA,2020-05-08 00:00:00,37.2088402055314,-86.2386201494617,41,5,0,36
21067,Fayette,Kentucky,USA,2020-05-08 00:00:00,38.0423302607506,-84.4587221936518,328,9,132,187
21069,Fleming,Kentucky,USA,2020-05-08 00:00:00,38.3701068105601,-83.6966440772038,2,0,0,2
21071,Floyd,Kentucky,USA,2020-05-08 00:00:00,37.5571085124179,-82.7457041433789,14,0,0,14
21073,Franklin,Kentucky,USA,2020-05-08 00:00:00,38.2391477444057,-84.8770681667771,16,0,0,16
21075,Fulton,Kentucky,USA,2020-05-08 00:00:00,36.5540721405751,-89.1875965868173,1,0,0,1
21077,Gallatin,Kentucky,USA,2020-05-08 00:00:00,38.7568746647107,-84.8593123856788,1,0,0,1
21079,Garrard,Kentucky,USA,2020-05-08 00:00:00,37.639577903552,-84.5376342293286,2,0,0,2
21081,Grant,Kentucky,USA,2020-05-08 00:00:00,38.6488155619095,-84.6246133807336,27,3,0,24
21083,Graves,Kentucky,USA,2020-05-08 00:00:00,36.7231381943589,-88.6512057677352,145,14,0,131
21085,Grayson,Kentucky,USA,2020-05-08 00:00:00,37.4608189464173,-86.3438765332761,93,6,0,87
21087,Green,Kentucky,USA,2020-05-08 00:00:00,37.2641094187647,-85.5531056747807,1,0,0,1
21089,Greenup,Kentucky,USA,2020-05-08 00:00:00,38.5456646906316,-82.9222922454407,12,0,0,12
21091,Hancock,Kentucky,USA,2020-05-08 00:00:00,37.8415087293929,-86.7779252067176,6,0,1,5
21093,Hardin,Kentucky,USA,2020-05-08 00:00:00,37.6979246032983,-85.9633719014675,56,2,0,54
21095,Harlan,Kentucky,USA,2020-05-08 00:00:00,36.8569745003883,-83.2179510398859,1,0,0,1
21097,Harrison,Kentucky,USA,2020-05-08 00:00:00,38.4418035090875,-84.3313958343415,18,0,0,18
21099,Hart,Kentucky,USA,2020-05-08 00:00:00,37.299926740021,-85.8847094015811,8,0,0,8
21101,Henderson,Kentucky,USA,2020-05-08 00:00:00,37.7958423572977,-87.5731516422179,75,2,10,63
21103,Henry,Kentucky,USA,2020-05-08 00:00:00,38.4484680359725,-85.1189299734893,8,0,0,8
21105,Hickman,Kentucky,USA,2020-05-08 00:00:00,36.678170497714,-88.9762156952611,5,0,0,5
21107,Hopkins,Kentucky,USA,2020-05-08 00:00:00,37.3088201364936,-87.540842136956,212,24,0,188
21109,Jackson,Kentucky,USA,2020-05-08 00:00:00,37.4197763873017,-84.0057660473226,60,12,0,48
21111,Jefferson,Kentucky,USA,2020-05-08 00:00:00,38.1871910001507,-85.6591577058052,1578,107,0,1471
21113,Jessamine,Kentucky,USA,2020-05-08 00:00:00,37.8720513179913,-84.5809372527779,40,0,0,40
21115,Johnson,Kentucky,USA,2020-05-08 00:00:00,37.8466393564579,-82.8315397746562,4,0,0,4
21117,Kenton,Kentucky,USA,2020-05-08 00:00:00,38.9334528591705,-84.5333168381353,360,26,0,334
21119,Knott,Kentucky,USA,2020-05-08 00:00:00,37.3540523996235,-82.9541313398124,4,0,0,4
21121,Knox,Kentucky,USA,2020-05-08 00:00:00,36.8906660574142,-83.8540452819507,6,0,0,6
21123,Larue,Kentucky,USA,2020-05-08 00:00:00,37.5457980663673,-85.6979139347121,6,0,0,6
21125,Laurel,Kentucky,USA,2020-05-08 00:00:00,37.1106705529251,-84.1178003200155,20,2,0,18
21127,Lawrence,Kentucky,USA,2020-05-08 00:00:00,38.0678786159162,-82.7347546612518,1,0,0,1
21131,Leslie,Kentucky,USA,2020-05-08 00:00:00,37.0940663146032,-83.3811399510864,4,0,0,4
21133,Letcher,Kentucky,USA,2020-05-08 00:00:00,37.1211921396678,-82.8552822541737,3,0,0,3
21135,Lewis,Kentucky,USA,2020-05-08 00:00:00,38.5315416285325,-83.3780560683441,3,0,0,3
21137,Lincoln,Kentucky,USA,2020-05-08 00:00:00,37.4553667662584,-84.6608453632709,6,1,0,5
21139,Livingston,Kentucky,USA,2020-05-08 00:00:00,37.2097032694655,-88.3538137781411,6,0,0,6
21141,Logan,Kentucky,USA,2020-05-08 00:00:00,36.8596987836682,-86.878938236343,24,1,0,23
21143,Lyon,Kentucky,USA,2020-05-08 00:00:00,37.0191301368276,-88.083281503241,13,3,0,10
21151,Madison,Kentucky,USA,2020-05-08 00:00:00,37.7201835061595,-84.2779980047842,33,1,0,32
21155,Marion,Kentucky,USA,2020-05-08 00:00:00,37.5525344710516,-85.269631376607,17,0,0,17
21157,Marshall,Kentucky,USA,2020-05-08 00:00:00,36.8834465874462,-88.329380525345,33,1,0,32
21159,Martin,Kentucky,USA,2020-05-08 00:00:00,37.8015772071797,-82.5132925147378,3,0,0,3
21161,Mason,Kentucky,USA,2020-05-08 00:00:00,38.595172991162,-83.8242451537315,6,0,0,6
21145,McCracken,Kentucky,USA,2020-05-08 00:00:00,37.0540793189473,-88.712719260003,68,2,0,66
21147,McCreary,Kentucky,USA,2020-05-08 00:00:00,36.7371415587179,-84.4841745377404,11,0,0,11
21149,McLean,Kentucky,USA,2020-05-08 00:00:00,37.5291899515605,-87.2636042463456,16,1,2,13
21163,Meade,Kentucky,USA,2020-05-08 00:00:00,37.9698391666143,-86.2171786432716,17,1,0,16
21165,Menifee,Kentucky,USA,2020-05-08 00:00:00,37.9413779682509,-83.5988719198919,3,0,0,3
21167,Mercer,Kentucky,USA,2020-05-08 00:00:00,37.8110307874092,-84.8744366861802,10,0,0,10
21169,Metcalfe,Kentucky,USA,2020-05-08 00:00:00,36.9905417852026,-85.629251091814,2,0,0,2
21171,Monroe,Kentucky,USA,2020-05-08 00:00:00,36.7121802789987,-85.7165195845859,6,0,0,6
21173,Montgomery,Kentucky,USA,2020-05-08 00:00:00,38.0335228018155,-83.9130889750471,11,0,1,10
21175,Morgan,Kentucky,USA,2020-05-08 00:00:00,37.9222809092994,-83.2588931268188,1,0,0,1
21177,Muhlenberg,Kentucky,USA,2020-05-08 00:00:00,37.2157922671784,-87.1420416640452,446,6,0,440
21179,Nelson,Kentucky,USA,2020-05-08 00:00:00,37.8051312669542,-85.4659885854708,28,0,0,28
21181,Nicholas,Kentucky,USA,2020-05-08 00:00:00,38.3355978163062,-84.0153305006059,1,0,0,1
21183,Ohio,Kentucky,USA,2020-05-08 00:00:00,37.4781916840194,-86.8488901965196,65,0,2,63
21185,Oldham,Kentucky,USA,2020-05-08 00:00:00,38.3994422236019,-85.4483655315853,36,0,0,36
21187,Owen,Kentucky,USA,2020-05-08 00:00:00,38.5196362585395,-84.8281098254641,1,0,0,1
21189,Owsley,Kentucky,USA,2020-05-08 00:00:00,37.4192050035238,-83.6831118761968,2,0,0,2
21191,Pendleton,Kentucky,USA,2020-05-08 00:00:00,38.6956276543229,-84.3602721796718,6,0,0,6
21193,Perry,Kentucky,USA,2020-05-08 00:00:00,37.2442933232903,-83.2214816028151,14,0,0,14
21195,Pike,Kentucky,USA,2020-05-08 00:00:00,37.4690483094494,-82.3958631537348,15,2,0,13
21197,Powell,Kentucky,USA,2020-05-08 00:00:00,37.8311453234984,-83.8237745829683,1,0,0,1
21199,Pulaski,Kentucky,USA,2020-05-08 00:00:00,37.1039268916279,-84.5771762961285,43,2,0,41
21203,Rockcastle,Kentucky,USA,2020-05-08 00:00:00,37.365178171937,-84.3159414647562,13,0,0,13
21205,Rowan,Kentucky,USA,2020-05-08 00:00:00,38.1962558626763,-83.4210754055091,2,0,0,2
21207,Russell,Kentucky,USA,2020-05-08 00:00:00,36.9910343120456,-85.0586875538092,17,4,0,13
21209,Scott,Kentucky,USA,2020-05-08 00:00:00,38.2915473159895,-84.5839338937235,32,0,0,32
21211,Shelby,Kentucky,USA,2020-05-08 00:00:00,38.2154382435571,-85.1947770123391,35,3,0,32
21213,Simpson,Kentucky,USA,2020-05-08 00:00:00,36.7419423398772,-86.5823205340391,32,2,0,30
21215,Spencer,Kentucky,USA,2020-05-08 00:00:00,38.0325101344478,-85.3278488188986,16,0,0,16
21217,Taylor,Kentucky,USA,2020-05-08 00:00:00,37.366454506722,-85.3278346716912,9,0,0,9
21219,Todd,Kentucky,USA,2020-05-08 00:00:00,36.8355562278825,-87.1791532891654,13,0,0,13
21221,Trigg,Kentucky,USA,2020-05-08 00:00:00,36.8063197395101,-87.8733713764944,9,0,0,9
21223,Trimble,Kentucky,USA,2020-05-08 00:00:00,38.6130327475504,-85.337568107119,3,0,0,3
21225,Union,Kentucky,USA,2020-05-08 00:00:00,37.6584480026168,-87.9453835493506,10,0,2,8
,unknown,Kentucky,USA,2020-05-08 00:00:00,,,390,28,1486,-1124
21227,Warren,Kentucky,USA,2020-05-08 00:00:00,36.993576767648,-86.4237993497507,486,2,0,484
21229,Washington,Kentucky,USA,2020-05-08 00:00:00,37.7533785640062,-85.1747465425109,5,0,0,5
21231,Wayne,Kentucky,USA,2020-05-08 00:00:00,36.8012652396939,-84.8286311989712,9,0,0,9
21233,Webster,Kentucky,USA,2020-05-08 00:00:00,37.51841747711,-87.6831570963113,27,0,0,27
21235,Whitley,Kentucky,USA,2020-05-08 00:00:00,36.7580732627917,-84.1451777269728,11,0,0,11
21239,Woodford,Kentucky,USA,2020-05-08 00:00:00,38.0423908285543,-84.7436031459304,17,0,0,17
22001,Acadia,Louisiana,USA,2020-05-08 00:00:00,30.2905333587839,-92.411979116918,142,11,0,131
22003,Allen,Louisiana,USA,2020-05-08 00:00:00,30.6528705337767,-92.8278792297374,90,9,0,81
22005,Ascension,Louisiana,USA,2020-05-08 00:00:00,30.2035444977768,-90.9112912896233,672,46,0,626
22007,Assumption,Louisiana,USA,2020-05-08 00:00:00,29.90077227591,-91.0625868594875,206,9,0,197
22009,Avoyelles,Louisiana,USA,2020-05-08 00:00:00,31.0762437199814,-92.0013767410039,74,7,0,67
22011,Beauregard,Louisiana,USA,2020-05-08 00:00:00,30.6484687349133,-93.3433389929716,44,4,0,40
22013,Bienville,Louisiana,USA,2020-05-08 00:00:00,32.3472191954521,-93.055951763684,78,16,0,62
22015,Bossier,Louisiana,USA,2020-05-08 00:00:00,32.6789310275969,-93.6050459212304,307,18,0,289
22017,Caddo,Louisiana,USA,2020-05-08 00:00:00,32.5801941763914,-93.8823968488838,1690,126,0,1564
22019,Calcasieu,Louisiana,USA,2020-05-08 00:00:00,30.2292239003436,-93.357945161614,478,37,0,441
22021,Caldwell,Louisiana,USA,2020-05-08 00:00:00,32.092271548618,-92.1166058761354,41,0,0,41
22023,Cameron,Louisiana,USA,2020-05-08 00:00:00,29.8468719705966,-93.1988964755426,3,0,0,3
22025,Catahoula,Louisiana,USA,2020-05-08 00:00:00,31.6661684567784,-91.8470716057726,46,2,0,44
22027,Claiborne,Louisiana,USA,2020-05-08 00:00:00,32.8226934350374,-92.9957332424096,58,9,0,49
22029,Concordia,Louisiana,USA,2020-05-08 00:00:00,31.4458359360357,-91.6400549955787,42,4,0,38
22031,De Soto,Louisiana,USA,2020-05-08 00:00:00,32.0554496235723,-93.7372773737138,207,13,0,194
22033,East Baton Rouge,Louisiana,USA,2020-05-08 00:00:00,30.5382395946985,-91.0956166217002,2256,170,0,2086
22035,East Carroll,Louisiana,USA,2020-05-08 00:00:00,32.73255346143,-91.2350651110508,14,0,0,14
22037,East Feliciana,Louisiana,USA,2020-05-08 00:00:00,30.8450707708839,-91.0455350736501,132,19,0,113
22039,Evangeline,Louisiana,USA,2020-05-08 00:00:00,30.7289364181672,-92.4059042007213,64,1,0,63
22041,Franklin,Louisiana,USA,2020-05-08 00:00:00,32.1332163405569,-91.6737652244016,145,4,0,141
22043,Grant,Louisiana,USA,2020-05-08 00:00:00,31.59970367897,-92.5595204512501,17,0,0,17
22045,Iberia,Louisiana,USA,2020-05-08 00:00:00,29.7564998487286,-91.7630555511806,281,26,0,255
22047,Iberville,Louisiana,USA,2020-05-08 00:00:00,30.2584988738488,-91.3493631932346,492,33,0,459
22049,Jackson,Louisiana,USA,2020-05-08 00:00:00,32.3020349252217,-92.5577401116977,57,4,0,53
22051,Jefferson,Louisiana,USA,2020-05-08 00:00:00,29.6774585804401,-90.097765399222,6588,391,0,6197
22053,Jefferson Davis,Louisiana,USA,2020-05-08 00:00:00,30.2677218794571,-92.8141209149791,66,6,0,60
22055,Lafayette,Louisiana,USA,2020-05-08 00:00:00,30.2067729534433,-92.0638821243752,479,21,0,458
22057,Lafourche,Louisiana,USA,2020-05-08 00:00:00,29.5003322407023,-90.4025945269723,693,55,0,638
,La Salle,Louisiana,USA,2020-05-08 00:00:00,,,30,0,0,30
22061,Lincoln,Louisiana,USA,2020-05-08 00:00:00,32.6016373737215,-92.6648152838636,101,11,0,90
22063,Livingston,Louisiana,USA,2020-05-08 00:00:00,30.4401362441176,-90.7279074416759,268,19,0,249
22065,Madison,Louisiana,USA,2020-05-08 00:00:00,32.3644009947056,-91.2425796994502,8,0,0,8
22067,Morehouse,Louisiana,USA,2020-05-08 00:00:00,32.8202181268396,-91.8017970459964,57,5,0,52
22069,Natchitoches,Louisiana,USA,2020-05-08 00:00:00,31.7235401557168,-93.0962433857109,91,8,0,83
22071,Orleans,Louisiana,USA,2020-05-08 00:00:00,30.0686436991324,-89.9281279210009,6626,463,0,6163
22073,Ouachita,Louisiana,USA,2020-05-08 00:00:00,32.4783131467856,-92.1548701322531,814,25,0,789
22075,Plaquemines,Louisiana,USA,2020-05-08 00:00:00,29.3806620652639,-89.4819150634632,185,17,0,168
22077,Pointe Coupee,Louisiana,USA,2020-05-08 00:00:00,30.7093956955168,-91.6007888442185,120,17,0,103
22079,Rapides,Louisiana,USA,2020-05-08 00:00:00,31.1986202777745,-92.5331996256928,316,11,0,305
22081,Red River,Louisiana,USA,2020-05-08 00:00:00,32.0931465237293,-93.3398791456644,34,6,0,28
22083,Richland,Louisiana,USA,2020-05-08 00:00:00,32.4177916678447,-91.7634818429149,91,1,0,90
